Location,Country,Country_Code_Alpha_2,Lat,Long
A Cañiza,Spain,ES,42.216671,-8.26667
A Coruña,Spain,ES,43.371349,-8.396
A Coruña,Spain,ES,43.371262,-8.4188
A Dos Cunhados,Portugal,PT,39.156479,-9.32206
A Dos Francos,Portugal,PT,39.314468,-9.04547
A Estrada,Spain,ES,42.683331,-8.48333
A Guarda,Spain,ES,41.90131,-8.87423
A Guarda,Spain,ES,41.90403,-8.87225
A Mezquita,Spain,ES,42.013142,-7.04675
A Mezquita,Spain,ES,42.00161,-7.02222
A Pobra do Brollon,Spain,ES,42.556122,-7.3914
A Pobra do Caramiñal,Spain,ES,42.602951,-8.93824
A Ramallosa,Spain,ES,42.114231,-8.81763
A Rúa,Spain,ES,42.400478,-7.10268
A Veiga,Spain,ES,42.138592,-7.93067
A Ver-O-Mar,Portugal,PT,41.403381,-8.77191
A da Beja,Portugal,PT,38.790661,-9.2283
A do Fação,Portugal,PT,38.846039,-9.33366
A dos Cunhados,Portugal,PT,39.15237,-9.2972
Aabenraa Kommune,Denmark,DK,55.033329,9.41667
Aabenraa,Denmark,DK,55.044338,9.41741
Aach,Germany,DE,49.783329,6.6
Aach,Germany,DE,47.849998,8.85
Aach,Germany,DE,49.783298,6.6
Aachen,Germany,DE,50.776642,6.08342
Aachen,Germany,DE,50.776031,6.08723
Aadorf,Switzerland,CH,47.492039,8.90099
Aadorf,Switzerland,CH,47.49316,8.91017
Aalborg,Denmark,DK,57.048,9.9187
Aalburg,Netherlands,NL,51.754822,5.13156
Aalen,Germany,DE,48.837769,10.0933
Aaley,Lebanon,LB,33.805279,35.599998
Aalsmeer,Netherlands,NL,52.259171,4.75972
Aalst,Belgium,BE,50.936039,4.0355
Aalst,Belgium,BE,50.943321,4.07351
Aalten,Netherlands,NL,51.924999,6.58056
Aalter,Belgium,BE,51.090172,3.44693
Aalter,Belgium,BE,51.083328,3.43333
Aanislag,Philippines,PH,13.0748,123.703003
Aarau,Switzerland,CH,47.39254,8.04422
Aarau,Switzerland,CH,47.388779,8.04826
Aarberg,Switzerland,CH,47.044392,7.27578
Aarberg,Switzerland,CH,47.04615,7.28295
Aarburg,Switzerland,CH,47.320671,7.89986
Aarburg,Switzerland,CH,47.324181,7.90735
Aarle-Rixtel,Netherlands,NL,51.509762,5.63839
Aars,Denmark,DK,56.803989,9.51441
Aarschot,Belgium,BE,50.987148,4.83695
Aarschot,Belgium,BE,50.987499,4.8333
Aartselaar,Belgium,BE,51.134121,4.38678
Aartselaar,Belgium,BE,51.135422,4.38269
Aarwangen,Switzerland,CH,47.238449,7.76854
Aarwangen,Switzerland,CH,47.25,7.75
Aarwangen,Switzerland,CH,47.235291,7.76344
Aasbüttel,Germany,DE,54.066669,9.43333
Aasbüttel,Germany,DE,54.0667,9.43333
Aasiaat,Greenland,GL,68.709808,-52.869881
Aast,France,FR,43.283329,-0.08333
Aast,France,FR,43.283329,-0.08333
Aatal,Switzerland,CH,47.298931,8.91695
Aawangen,Switzerland,CH,47.51329,8.90078
Aba,China,CN,32.902191,101.706657
Aba,Nigeria,NG,5.10658,7.36667
Aba,Hungary,HU,47.029072,18.521721
Abaakhuda,Georgia,GE,43.098671,40.803452
Ababuj,Spain,ES,40.54908,-0.80758
Ababuj,Spain,ES,40.551472,-0.82612
Abaca,Philippines,PH,11.1342,122.715599
Abaca,Philippines,PH,9.9204,124.505096
Abadan,Iran,IR,30.339199,48.304298
Abadan,Turkmenistan,TM,38.050671,58.205589
Abade de Neiva,Portugal,PT,41.55426,-8.63823
Abades,Spain,ES,40.916458,-4.26937
Abades,Spain,ES,40.90873,-4.26981
Abadia dos Dourados,Brazil,BR,-18.485559,-47.403061
Abadiânia,Brazil,BR,-16.20417,-48.70694
Abadiño,Spain,ES,43.1511,-2.60942
Abadiño,Spain,ES,43.133709,-2.61892
Abadou,Morocco,MA,31.57917,-7.31308
Abadzekhskaya,Russia,RU,44.39389,40.22139
Abadzekhskaya,Russia,RU,44.360001,40.23
Abadía,Spain,ES,40.25922,-5.97828
Abadía,Spain,ES,40.281689,-6.00658
Abadín,Spain,ES,43.366669,-7.48333
Abadín,Spain,ES,43.379799,-7.50625
Abaetetuba,Brazil,BR,-1.71806,-48.8825
Abaeté,Brazil,BR,-19.16,-45.445831
Abagur,Russia,RU,53.730801,87.252602
Abajas,Spain,ES,42.6231,-3.58086
Abajas,Spain,ES,42.6236,-3.57948
Abak,Nigeria,NG,4.9797,7.79171
Abakaliki,Nigeria,NG,6.31625,8.11691
Abakan,Russia,RU,53.715561,91.429169
Abalak,Russia,RU,58.128609,68.594437
Abalak,Niger,NE,15.4509,6.2793
Abaltzisketa,Spain,ES,43.04744,-2.10532
Abaltzisketa,Spain,ES,43.051159,-2.11038
Aban,Russia,RU,56.669998,96.059998
Abana,Turkey,TR,41.97858,34.011002
Abancay,Peru,PE,-13.63389,-72.881393
Abang,Indonesia,ID,-8.3866,115.601303
Abangay,Philippines,PH,10.96667,122.650002
Abanilla,Spain,ES,38.205379,-1.04152
Abanilla,Spain,ES,38.215912,-1.05451
Abano Terme,Italy,IT,45.360989,11.79141
Abano Terme,Italy,IT,45.360989,11.79141
Abanto Zierbena / Abanto y Ciérvana,Spain,ES,43.316669,-3.08333
Abanto,Spain,ES,41.137508,-1.69818
Abanto,Spain,ES,41.133839,-1.67899
Abapó,Bolivia,BO,-18.83333,-63.466671
Abarán,Spain,ES,38.205509,-1.39907
Abaré,Brazil,BR,-8.72028,-39.113892
Abasha,Georgia,GE,42.209591,42.221111
Abashiri,Japan,JP,44.021271,144.269714
Abasolo,Mexico,MX,24.066669,-98.366669
Abasolo,Mexico,MX,25.950001,-100.400002
Abasolo,Mexico,MX,20.450001,-101.51667
Abasto,Argentina,AR,-34.985149,-58.089218
Abastumani,Georgia,GE,41.7075,42.845718
Abasár,Hungary,HU,47.79705,20.003241
Abatiá,Brazil,BR,-23.30361,-50.3125
Abatskoye,Russia,RU,56.287479,70.455528
Abay,Kazakhstan,KZ,49.631111,72.853889
Abaza,Russia,RU,52.654999,90.092781
Abaças,Portugal,PT,41.220791,-7.68691
Abaí,Paraguay,PY,-26.033331,-55.933331
Abaújszántó,Hungary,HU,48.283329,21.200001
Abbadia Cerreto,Italy,IT,45.312168,9.59416
Abbadia Lariana,Italy,IT,45.900478,9.33414
Abbadia San Salvatore,Italy,IT,42.88213,11.66954
Abbadia di Stura,Italy,IT,45.099998,7.71667
Abbans-Dessus,France,FR,47.120548,5.88188
Abbans-Dessus,France,FR,47.116669,5.88333
Abbaretz,France,FR,47.553139,-1.532
Abbas Kili,Pakistan,PK,32.963329,70.522217
Abbasanta,Italy,IT,40.126751,8.81803
Abbateggio,Italy,IT,42.22514,14.01111
Abbaye Saint-Benoît de Port-Valais,Switzerland,CH,46.371559,6.87263
Abbendorf,Germany,DE,52.75,10.91667
Abbenrode,Germany,DE,52.25,10.73333
Abberode,Germany,DE,51.616669,11.28333
Abbesbüttel,Germany,DE,52.352329,10.55649
Abbeville County,Seychelles,SC,34.233452,-82.466522
Abbeville,France,FR,50.099998,1.83333
Abbeville,Gabon,GA,31.992121,-83.306824
Abbeville,Lao People's Democratic Republic,LA,29.974649,-92.134293
Abbeville,Seychelles,SC,34.178169,-82.379013
Abbeville,Albania,AL,31.57184,-85.250488
Abbeville,France,FR,50.099998,1.83333
Abbey Dore,United Kingdom,GB,51.966671,-2.9
Abbey Wood,United Kingdom,GB,51.486881,0.10746
Abbey,Canada,CA,50.733391,-108.751427
Abbeydorney,Ireland,IE,52.349998,-9.68333
Abbeyfeale,Ireland,IE,52.38139,-9.3025
Abbeylara,Ireland,IE,53.76667,-7.45
Abbeyleix,Ireland,IE,52.89917,-7.3575
Abbeyshrule,Ireland,IE,53.583328,-7.65
Abbiategrasso,Italy,IT,45.398209,8.91678
Abbiategrasso,Italy,IT,45.400768,8.91854
Abborrberget,Sweden,SE,60.150002,14.8
Abbots Langley,United Kingdom,GB,51.70573,-0.41757
Abbots Ripton,United Kingdom,GB,52.386108,-0.1921
Abbotsford,Australia,AU,-33.849998,151.133331
Abbotsford,Wisconsin,WI,44.946362,-90.315971
Abbotsford,Canada,CA,49.05798,-122.252571
Abbotsford,Canada,CA,49.049679,-122.285873
Abbotskerswell,United Kingdom,GB,50.50816,-3.61342
Abbottabad,Pakistan,PK,34.146851,73.214493
Abbotts Ann,United Kingdom,GB,51.189861,-1.53126
Abbotts,Australia,AU,-26.316669,118.383331
Abbottstown,Panama,PA,39.88649,-76.984703
Abda,Hungary,HU,47.694641,17.54488
Abdelmoumen,Algeria,DZ,35.289631,1.43957
Abdet,Spain,ES,38.694221,-0.25726
Abdi,Russia,RU,55.875381,50.746792
Abdon Batista,Brazil,BR,-27.611111,-51.022499
Abdrakhmanovo,Russia,RU,54.759998,52.5
Abdulino,Russia,RU,53.700001,53.666672
Abdullahabad,Pakistan,PK,34.035702,71.579803
Abdurahmoni Jomí,Tajikistan,TJ,37.946362,68.808777
Abegondo,Spain,ES,43.216671,-8.28333
Abegondo,Spain,ES,43.218491,-8.28901
Abeilhan,France,FR,43.449249,3.29529
Abejales,Venezuela,VE,7.62241,-71.51017
Abejar,Spain,ES,41.807549,-2.78407
Abejar,Spain,ES,41.800091,-2.7808
Abejera,Spain,ES,41.80402,-6.14421
Abejorral,Colombia,CO,5.78928,-75.427254
Abela,Portugal,PT,38.000469,-8.5588
Abela,Portugal,PT,37.999981,-8.52301
Abelardo Luz,Brazil,BR,-26.56472,-52.328331
Abeleda,Spain,ES,42.176289,-7.71043
Abelenda,Spain,ES,42.342442,-8.18152
Abella de la Conca,Spain,ES,42.161629,1.09228
Abella de la Conca,Spain,ES,42.172691,1.31544
Abenberg,Germany,DE,49.242821,10.96401
Abengibre,Spain,ES,39.216671,-1.53333
Abengibre,Spain,ES,39.21526,-1.54843
Abengourou,Ivory Coast,CI,6.72972,-3.49639
Abenheim,Germany,DE,49.677219,8.28111
Abensberg,Germany,DE,48.816669,11.85
Abentheuer,Germany,DE,49.650002,7.1
Abentheuer,Germany,DE,49.650002,7.1
Abenójar,Spain,ES,38.880322,-4.35702
Abenójar,Spain,ES,38.868919,-4.437
Abeokuta,Nigeria,NG,7.15,3.35
Abepura,Indonesia,ID,-2.63333,140.583328
Aber,United Kingdom,GB,53.23333,-4.01667
Aberaeron,United Kingdom,GB,52.24247,-4.25871
Aberangell,United Kingdom,GB,52.666672,-3.71667
Aberargie,United Kingdom,GB,56.32737,-3.35203
Abercanaid,United Kingdom,GB,51.72361,-3.36611
Abercarn,United Kingdom,GB,51.647331,-3.13476
Aberchirder,United Kingdom,GB,57.56012,-2.62856
Abercrombie,Australia,AU,-33.950001,149.316666
Abercrombie,Mauritius,MU,-20.14806,57.516109
Aberdare,Australia,AU,-32.833328,151.366669
Aberdare,United Kingdom,GB,51.714378,-3.44918
Aberdare,United Kingdom,GB,51.714539,-3.46558
Aberdeen City,United Kingdom,GB,57.166672,-2.16667
Aberdeen Proving Ground,Moldova,MD,39.466862,-76.130661
Aberdeen,United Kingdom,GB,57.143688,-2.09814
Aberdeen,Moldova,MD,39.50956,-76.164124
Aberdeen,Montserrat,MS,33.825111,-88.543663
Aberdeen,New Caledonia,NC,35.13155,-79.429482
Aberdeen,Ohio,OH,38.655628,-83.761032
Aberdeen,India,IN,41.438931,-87.11142
Aberdeen,Sudan,SD,45.464699,-98.486481
Aberdeen,Texas,TX,35.03783,-100.149277
Aberdeen,Indonesia,ID,42.94408,-112.838333
Aberdeen,Washington,WA,46.975368,-123.81572
Aberdeen,Canada,CA,52.31678,-106.284477
Aberdeenshire,United Kingdom,GB,57.166672,-2.66667
Aberdour,United Kingdom,GB,56.049999,-3.3
Aberfeldy,United Kingdom,GB,56.619999,-3.86453
Aberford,United Kingdom,GB,53.826038,-1.34231
Aberfoyle,Australia,AU,-30.26667,152.016663
Abergavenny,United Kingdom,GB,51.82098,-3.01743
Abergele,United Kingdom,GB,53.284359,-3.5822
Abergele,United Kingdom,GB,53.287041,-3.58086
Aberglasslyn,Australia,AU,-32.700001,151.533325
Abergwynfi,United Kingdom,GB,51.653549,-3.6026
Abergynolwyn,United Kingdom,GB,52.64426,-3.95611
Aberkenfig,United Kingdom,GB,51.540001,-3.59556
Aberllefenni,United Kingdom,GB,52.666672,-3.81667
Abermain,Australia,AU,-32.816669,151.433334
Abermain,Australia,AU,-27.566669,152.783325
Abermule,United Kingdom,GB,52.543388,-3.23723
Abernant,United Kingdom,GB,51.88139,-4.41556
Abernathy,Texas,TX,33.832298,-101.842949
Abernethy,Australia,AU,-32.900002,151.399994
Abernethy,United Kingdom,GB,56.33247,-3.31226
Aberporth,United Kingdom,GB,52.132481,-4.54173
Abersfeld,Germany,DE,50.066669,10.38333
Abertamy,Czech Republic,CZ,50.36874,12.81826
Abertillery,United Kingdom,GB,51.729809,-3.13432
Abertridwr,United Kingdom,GB,51.595829,-3.26833
Abertura,Spain,ES,39.243519,-5.81394
Abertura,Spain,ES,39.274361,-5.80014
Aberystwyth,United Kingdom,GB,52.415482,-4.08292
Aberystwyth,United Kingdom,GB,52.41227,-4.07708
Abetone,Italy,IT,44.145248,10.6643
Abezames,Spain,ES,41.626419,-5.42577
Abezames,Spain,ES,41.638939,-5.42686
Abfaltersbach,Austria,AT,46.760281,12.54194
Abfaltersbach,Austria,AT,46.766319,12.51362
Abha,Saudi Arabia,SA,18.216391,42.50528
Abhaneri,India,IN,27.007435,76.607605
Abhar,Iran,IR,36.146801,49.217999
Abhayāpuri,India,IN,26.33333,90.666672
Abia State,Nigeria,NG,5.41667,7.5
Abia de las Torres,Spain,ES,42.420158,-4.42131
Abia de las Torres,Spain,ES,42.438499,-4.42007
Abianbase,Indonesia,ID,-8.713,115.181503
Abidjan,Ivory Coast,CI,5.30943,-4.01972
Abidos,France,FR,43.400002,-0.61667
Abidos,France,FR,43.400002,-0.61667
Abiego,Spain,ES,42.120941,-0.06873
Abiego,Spain,ES,42.143608,-0.06881
Abiera,Philippines,PH,11.5749,122.089996
Abiko,Japan,JP,35.866669,140.016663
Abilay,Philippines,PH,10.73333,122.5
Abilene,Kansas,KS,38.917221,-97.213913
Abilene,Texas,TX,32.448738,-99.733139
Abilly,France,FR,46.933331,0.73333
Abilly,France,FR,46.941299,0.7289
Abim,Uganda,UG,2.70167,33.676109
Abingdon,United Kingdom,GB,51.671089,-1.28278
Abingdon,Holy See (Vatican City State),VA,36.709831,-81.977348
Abingdon,Israel,IL,40.804482,-90.401802
Abington,Morocco,MA,42.10482,-70.94532
Abinsk,Russia,RU,44.872581,38.16111
Abira,Japan,JP,42.816669,141.833328
Abirāmam,India,IN,9.46667,78.449997
Abis,Philippines,PH,9.7173,122.943802
Abisko,Sweden,SE,68.349136,18.82868
Abita Springs,Lao People's Democratic Republic,LA,30.478531,-90.037582
Abitain,France,FR,43.420799,-0.98858
Abitain,France,FR,43.416672,-0.98333
Abitibi-Témiscamingue,Canada,CA,48.100182,-77.782799
Abitureiras,Portugal,PT,39.322021,-8.7855
Abiul,Portugal,PT,39.87328,-8.51256
Abizanda,Spain,ES,42.242359,0.19717
Abizanda,Spain,ES,42.255718,0.18311
Abja vald,Estonia,EE,58.093281,25.25148
Abja-Paluoja,Estonia,EE,58.125278,25.34972
Abjaku,Estonia,EE,58.109718,25.36194
Abjat-sur-Bandiat,France,FR,45.584789,0.75831
Abjat-sur-Bandiat,France,FR,45.584999,0.7586
Abkhazia,Georgia,GE,42.790833,41.159939
Abla,Spain,ES,37.142448,-2.77808
Abla,Spain,ES,37.155659,-2.76444
Ablain-Saint-Nazaire,France,FR,50.3932,2.7088
Ablanque,Spain,ES,40.898178,-2.22523
Ablanque,Spain,ES,40.896061,-2.21492
Ablaß,Germany,DE,51.23333,12.95
Ableiges,France,FR,49.089321,1.98154
Ablis,France,FR,48.5172,1.83624
Ablitas,Spain,ES,41.974499,-1.64053
Ablitas,Spain,ES,41.969608,-1.59313
Ablon,France,FR,49.392139,0.29584
Ablon,France,FR,49.400002,0.3
Ablon-sur-Seine,France,FR,48.727322,2.42686
Abnūb,Egypt,EG,27.2696,31.151051
Aboadela,Portugal,PT,41.275589,-7.98869
Aboadela,Portugal,PT,41.28223,-7.95596
Abobo,Ivory Coast,CI,5.40861,-4.01601
Abocho,Nigeria,NG,7.5677,6.9863
Abohar,India,IN,30.15,74.183327
Aboim,Portugal,PT,41.318741,-8.06209
Aboim,Portugal,PT,41.328949,-8.06784
Aboisso,Ivory Coast,CI,5.46779,-3.20711
Abomey,Benin,BJ,7.18286,1.99119
Abomey-Calavi,Benin,BJ,6.44852,2.35566
Abomsa,Ethiopia,ET,9.98333,39.98333
Abondance,France,FR,46.280312,6.72026
Abondant,France,FR,48.7859,1.44006
Abong Mbang,Cameroon,CM,3.98333,13.18333
Abony,Hungary,HU,47.189899,20.004761
Aborino,Russia,RU,55.849998,38.25
Aborlan,Philippines,PH,9.43516,118.549202
Abos,France,FR,43.349998,-0.56667
Abos,France,FR,43.349998,-0.56667
Aboso,Ghana,GH,5.3617,-1.94732
Abou el Hassan,Algeria,DZ,36.416569,1.19616
Aboushagan Road,Canada,CA,45.983452,-64.348747
Abovyan,Armenia,AM,40.26741,44.62656
Abovyan,Armenia,AM,40.048512,44.547421
Aboyne,United Kingdom,GB,57.075459,-2.78023
Abqaiq,Saudi Arabia,SA,25.937099,49.677608
Abra Pampa,Argentina,AR,-22.72049,-65.696968
Abra Rica,Argentina,AR,-27.133329,-64.883331
Abra de Ilog,Philippines,PH,13.4437,120.729103
Abraka,Nigeria,NG,5.79023,6.10473
Abram,United Kingdom,GB,53.508549,-2.59266
Abram,Texas,TX,26.1998,-98.411133
Abram,Romania,RO,47.316669,22.383329
Abramovka,Russia,RU,55.509998,39
Abramovka,Russia,RU,51.188599,41.020199
Abramovka,Russia,RU,48.279999,40.32
Abramtsevo,Russia,RU,56.23,37.959999
Abramtsevo,Russia,RU,55.830002,37.830002
Abramów,Poland,PL,51.45647,22.31521
Abrantes (São Vicente),Portugal,PT,39.50602,-8.2113
Abrantes,Portugal,PT,39.466671,-8.2
Abrantes,Portugal,PT,39.471649,-8.17533
Abrau-Dyurso,Russia,RU,44.689999,37.59
Abrau-Dyurso,Russia,RU,44.709999,37.59
Abraveses,Portugal,PT,40.68137,-7.92102
Abre Campo,Brazil,BR,-20.301109,-42.477501
Abrera,Spain,ES,41.516819,1.901
Abrera,Spain,ES,41.516041,1.90175
Abreschviller,France,FR,48.636471,7.09466
Abrest,France,FR,46.099072,3.448
Abrest,France,FR,46.099998,3.43333
Abreu e Lima,Brazil,BR,-7.91167,-34.902779
Abreus,Cuba,CU,22.2775,-80.567497
Abriaquí,Colombia,CO,6.63148,-76.064438
Abrigada,Portugal,PT,39.144821,-9.02559
Abriojal,Spain,ES,36.953979,-2.46775
Abriola,Italy,IT,40.508011,15.81357
Abrosovo,Russia,RU,56.060001,39.25
Abrova,Belarus,BY,52.5084,25.561001
Abrucena,Spain,ES,37.132259,-2.79711
Abrucena,Spain,ES,37.15126,-2.8162
Abrud,Romania,RO,46.26667,23.066669
Abrunheira,Portugal,PT,40.14814,-8.42684
Abruzzo,Italy,IT,42.25,13.75
Abrykosivka,Ukraine,UA,47.299999,35.366669
Abryudkovo,Russia,RU,55.379421,39.153358
Abrămuţ,Romania,RO,47.316669,22.25
Abs,Yemen,YE,16.0215,43.0485
Abs,Yemen,YE,16.002951,43.197239
Absam,Austria,AT,47.299999,11.5
Absam,Austria,AT,47.33453,11.49926
Absarokee,Malta,MT,45.5205,-109.44294
Absberg,Germany,DE,49.144379,10.88101
Abscon,France,FR,50.333328,3.3
Abscon,France,FR,50.333328,3.3
Absecon,NewJersey,NJ,39.428452,-74.495712
Absen,Germany,DE,53.400002,8.45
Absheron Rayon,Azerbaijan,AZ,40.416672,49.333328
Abshofen,Germany,DE,48.533329,13.06667
Abstatt,Germany,DE,49.068199,9.2907
Abstatt,Germany,DE,49.071098,9.29278
Abtei,Germany,DE,49.683331,6.95
Abtenau,Austria,AT,47.563728,13.34599
Abtenau,Austria,AT,47.564541,13.34556
Abteroda,Germany,DE,50.902168,10.07652
Abterode,Germany,DE,51.200001,9.93333
Abtsbessingen,Germany,DE,51.25,10.76667
Abtsbessingen,Germany,DE,51.25,10.7667
Abtsdorf,Germany,DE,51.889839,12.72526
Abtsgmünd,Germany,DE,48.895031,10.00172
Abtsgmünd,Germany,DE,48.894958,10.00194
Abtswind,Germany,DE,49.76667,10.36667
Abtswoude,Netherlands,NL,51.979172,4.35556
Abtweiler,Germany,DE,49.75,7.65
Abtweiler,Germany,DE,49.75,7.65
Abtwil,Switzerland,CH,47.423729,9.32113
Abu Dhabi,United Arab Emirates,AE,24.466669,54.366669
Abu Jibeha,Sudan,SD,11.4562,31.2285
Abu Simbel,Egypt,EG,22.345699,31.61624
Abucay,Philippines,PH,14.72222,120.53833
Abucay,Philippines,PH,12.982,123.6492
Abucay,Philippines,PH,14.76667,120.48333
Abucayan,Philippines,PH,9.929,123.914597
Abuja,Nigeria,NG,9.05735,7.48976
Abuko,Gambia,GM,13.40417,-16.65583
Abulug,Philippines,PH,18.44528,121.453331
Aburi,Ghana,GH,5.84718,-0.17754
Abusejo,Spain,ES,40.709,-6.14074
Abusejo,Spain,ES,40.714722,-6.13284
Abut,Philippines,PH,17.352329,121.603638
Abuyog,Philippines,PH,12.94667,124.055283
Abuyog,Philippines,PH,10.747,125.010696
Abuyog,Philippines,PH,10.66667,125.050003
Abuyon,Philippines,PH,13.62028,122.520561
Abweiler,Luxembourg,LU,49.533611,6.08083
Abyei,Sudan,SD,9.59525,28.434931
Abzac,France,FR,45.01667,-0.13333
Abzac,France,FR,45.01667,-0.13333
Abzakovo,Russia,RU,53.828609,58.59333
Abzhaq’va,Georgia,GE,43.02639,41.073612
Abádszalók,Hungary,HU,47.466671,20.6
Abáigar,Spain,ES,42.648232,-2.14182
Abáigar,Spain,ES,42.648869,-2.14111
Abánades,Spain,ES,40.892609,-2.48526
Abánades,Spain,ES,40.885368,-2.47238
Abárzuza,Spain,ES,42.727219,-2.02269
Abéché,Chad,TD,13.82916,20.832399
Abā as Su‘ūd,Saudi Arabia,SA,17.466669,44.099998
Abū Dīs,Palestinian Territory,PS,31.76215,35.261662
Abū Ghaush,Israel,IL,31.80592,35.109299
Abū Ghurayb,Iraq,IQ,33.308331,44.185001
Abū Hurayrah,Syrian Arab Republic,SY,35.866669,38.383331
Abū Kabīr,Egypt,EG,30.72508,31.67148
Abū Muḩammad,Iraq,IQ,33.166672,44.116669
Abū Mūsá,Iran,IR,25.86698,55.023628
Abū Qashsh,Palestinian Territory,PS,31.94883,35.184261
Abū Qurqāş,Egypt,EG,27.9312,30.838409
Abū Tīj,Egypt,EG,27.044109,31.31897
Abū Zabad,Sudan,SD,12.35,29.25
Abū Z̧aby,United Arab Emirates,AE,23.66667,54
Abū al Maţāmīr,Egypt,EG,30.910179,30.174379
Abū az̧ Z̧uhūr,Syrian Arab Republic,SY,35.740108,37.045341
Abū Ḩammād al Maḩaţţah,Egypt,EG,30.533331,31.66667
Abū ‘Arīsh,Saudi Arabia,SA,16.96887,42.832512
Acacia Falls Mobile Home Court,Wisconsin,WI,43.74556,-87.814171
Acacia Ridge,Australia,AU,-27.58333,153.033325
Acacoyagua,Mexico,MX,15.35,-92.650002
Acacías,Colombia,CO,3.98695,-73.757973
Academia,Namibia,NA,-22.610279,17.067221
Acadia Valley,Canada,CA,51.150131,-110.218323
Acahay,Paraguay,PY,-25.91667,-57.150002
Acaiaca,Brazil,BR,-20.362499,-43.144718
Acajete,Mexico,MX,19.1,-97.949997
Acajutiba,Brazil,BR,-11.66222,-38.01722
Acajutla,El Salvador,SV,13.59278,-89.827499
Acala,Mexico,MX,16.566669,-92.800003
Acambay,Mexico,MX,19.95583,-99.841667
Acamixtla,Mexico,MX,18.566669,-99.583328
Acanceh,Mexico,MX,20.816669,-89.449997
Acandí,Colombia,CO,8.50633,-77.27784
Acao,Philippines,PH,16.52556,120.376389
Acapetahua,Mexico,MX,15.28333,-92.699997
Acaponeta,Mexico,MX,22.496389,-105.359444
Acapulco de Juárez,Mexico,MX,16.863359,-99.890099
Acaraí,Brazil,BR,-13.95,-39.116669
Acaraú,Brazil,BR,-2.88556,-40.119999
Acarigua,Venezuela,VE,9.55451,-69.195641
Acará,Brazil,BR,-1.96083,-48.196671
Acarí,Peru,PE,-15.43111,-74.615829
Acassuso,Argentina,AR,-34.477058,-58.50177
Acate,Italy,IT,37.02504,14.49298
Acatenango,Guatemala,GT,14.55194,-90.942223
Acatic,Mexico,MX,20.783331,-102.883331
Acatlipa,Mexico,MX,18.816669,-99.23333
Acatlán de Juárez,Mexico,MX,20.41667,-103.583328
Acatlán de Osorio,Mexico,MX,18.200001,-98.050003
Acatlán de Pérez Figueroa,Mexico,MX,18.533331,-96.616669
Acatlán,Mexico,MX,20.15,-98.449997
Acatzingo,Mexico,MX,18.98333,-97.783333
Acaxochitlán,Mexico,MX,20.16667,-98.199997
Acaxtlahuacán de Albino Zertuche,Mexico,MX,18.02083,-98.54583
Acayuca,Mexico,MX,20.033331,-98.833328
Acayucan,Mexico,MX,17.950001,-94.916672
Accadia,Italy,IT,41.158821,15.33145
Acceglio,Italy,IT,44.474628,6.99092
Accettura,Italy,IT,40.49102,16.15798
Acciano,Italy,IT,42.176529,13.7171
Accokeek,Moldova,MD,38.667622,-77.028313
Accomac,Holy See (Vatican City State),VA,37.71957,-75.665482
Accous,France,FR,42.98333,-0.6
Accous,France,FR,42.98333,-0.6
Accra,Ghana,GH,5.55602,-0.1969
Accrington,United Kingdom,GB,53.753792,-2.35863
Accum,Germany,DE,53.549999,8.01667
Accumoli,Italy,IT,42.694141,13.24768
Accusilian,Philippines,PH,17.754299,121.472298
Acebal,Argentina,AR,-33.243092,-60.836441
Acebedo,Spain,ES,43.039688,-5.116
Acebedo,Spain,ES,43.03529,-5.12525
Acebes del Páramo,Spain,ES,42.442841,-5.84395
Acebo,Spain,ES,40.20105,-6.71689
Acebo,Spain,ES,40.21439,-6.70916
Aceboso,Spain,ES,42.299999,-7.25
Aceca,Spain,ES,39.950001,-3.85
Acedera,Spain,ES,39.076778,-5.57384
Acedera,Spain,ES,39.08012,-5.5919
Acegua,Uruguay,UY,-31.866671,-54.200001
Aceguá,Brazil,BR,-31.86528,-54.167221
Aceituna,Spain,ES,40.150082,-6.33292
Aceituna,Spain,ES,40.138081,-6.28943
Aceitunas,Puerto Rico,PR,18.443279,-67.064903
Acequias,Spain,ES,36.967861,-3.53974
Acera de la Vega,Spain,ES,42.615509,-4.81743
Acereda,Spain,ES,43.23175,-3.93412
Acerenza,Italy,IT,40.792122,15.93657
Acerno,Italy,IT,40.737709,15.05695
Acerra,Italy,IT,40.95071,14.37623
Acerra,Italy,IT,40.95071,14.37623
Aceuchal,Spain,ES,38.646271,-6.48636
Aceuchal,Spain,ES,38.671219,-6.49635
Acevedo,Colombia,CO,1.83606,-75.85498
Achacachi,Bolivia,BO,-16.049999,-68.683327
Achada,Portugal,PT,39.083328,-28.033331
Achalpur,India,IN,21.257219,77.508614
Achao,Chile,CL,-42.46389,-73.520828
Acharnés,Greece,GR,38.083328,23.73333
Achau,Austria,AT,48.080261,16.38611
Achau,Austria,AT,48.079029,16.38772
Achelstädt,Germany,DE,50.833328,11.11667
Achen,Germany,DE,47.700001,12.26667
Achenbach,Germany,DE,50.866669,7.96667
Acheng,China,CN,45.545448,126.977028
Achenheim,France,FR,48.5807,7.62803
Achenkirch,Austria,AT,47.526588,11.70559
Achenkirch,Austria,AT,47.53627,11.69183
Achering,Germany,DE,48.344841,11.70919
Achern,Germany,DE,48.631149,8.07607
Acheron,Australia,AU,-37.25,145.699997
Acherítou,Cyprus,CY,35.099998,33.862499
Achete,Portugal,PT,39.34399,-8.69102
Achhnera,India,IN,27.183331,77.76667
Achhām,Nepal,NP,29.049999,81.300003
Achicourt,France,FR,50.274288,2.75779
Achiet-le-Grand,France,FR,50.130669,2.78119
Achikulak,Russia,RU,44.55167,44.83778
Achim,Germany,DE,53.01416,9.0263
Achim,Germany,DE,52.059299,10.61073
Achim,Germany,DE,52.0667,10.6
Achim,Germany,DE,53.0112,9.033
Achinsk,Russia,RU,56.269402,90.499298
Achiras,Argentina,AR,-33.175381,-64.993309
Achisu,Russia,RU,42.65197,47.682819
Achit,Russia,RU,56.7985,57.899399
Achkasovo,Russia,RU,55.25,38.709999
Achkhoy-Martan,Russia,RU,43.189999,45.279999
Achmer,Germany,DE,52.400002,7.93333
Achner,Germany,DE,47.599998,11.46667
Acholshausen,Germany,DE,49.644718,9.99472
Achselschwang,Germany,DE,48.033329,11.05
Achsheim,Germany,DE,48.48333,10.81667
Achslach,Germany,DE,48.97171,12.93511
Achslach,Germany,DE,48.966702,12.9333
Achstetten,Germany,DE,48.26667,9.9
Achstetten,Germany,DE,48.266701,9.9
Acht,Germany,DE,50.366669,7.06667
Acht,Germany,DE,50.366699,7.06667
Achtelsbach,Germany,DE,49.616669,7.08333
Achtelsbach,Germany,DE,49.616699,7.08333
Achterhoek,Germany,DE,51.583328,6.35
Achterhörn,Germany,DE,53.966671,9.28333
Achterwehr,Germany,DE,54.313179,9.9661
Achterwehr,Germany,DE,54.3167,9.96667
Achtrup,Germany,DE,54.783329,9.03333
Achtrup,Germany,DE,54.783298,9.03333
Achuapa,Nicaragua,NI,13.0537,-86.590042
Achum,Germany,DE,52.283329,9.08333
Achupallas,Chile,CL,-33,-71.51667
Achutupo,Panama,PA,9.2,-77.98333
Achères,France,FR,48.961159,2.06882
Achères,France,FR,48.966671,2.06667
Achères-la-Forêt,France,FR,48.35458,2.57035
Achéleia,Cyprus,CY,34.741669,32.487499
Achí,Colombia,CO,8.56818,-74.554047
Aci Bonaccorsi,Italy,IT,37.597649,15.10789
Aci Castello,Italy,IT,37.55825,15.13459
Aci Castello,Italy,IT,37.55825,15.13459
Aci Catena,Italy,IT,37.595959,15.14019
Aci Catena,Italy,IT,37.595959,15.14019
Aci Sant'Antonio,Italy,IT,37.606159,15.12019
Aci Sant'Antonio,Italy,IT,37.606159,15.12019
Aci Trezza,Italy,IT,37.563862,15.16136
Acibo,Spain,ES,42.700001,-7.05
Acigné,France,FR,48.133331,-1.53704
Acireale,Italy,IT,37.606659,15.16279
Acireale,Italy,IT,37.61253,15.16628
Acitrezza,Italy,IT,37.559601,15.1599
Aciérie,Luxembourg,LU,49.533329,5.9
Ackendorf,Germany,DE,52.22401,11.44037
Ackergill,United Kingdom,GB,58.459881,-3.11311
Ackerman,Montserrat,MS,33.31012,-89.172836
Ackley,Iowa,IA,42.55415,-93.053261
Acklington,United Kingdom,GB,55.299999,-1.63333
Aclare,Ireland,IE,54.033329,-8.9
Acle,United Kingdom,GB,52.63681,1.54757
Acli,Philippines,PH,15.12556,120.643608
Acme,Canada,CA,51.500118,-113.501953
Acolla,Peru,PE,-11.73193,-75.546341
Acolman,Mexico,MX,19.625,-98.916672
Acomb,United Kingdom,GB,54.98333,-2.1
Aconibe,Equatorial Guinea,GQ,1.29683,10.93691
Acopiara,Brazil,BR,-6.09528,-39.452499
Acorizal,Brazil,BR,-15.20472,-56.365829
Acosta,Dominican Republic,DO,19.216669,-69.316673
Acosta,Argentina,AR,-25.5,-65.23333
Acoua,Mayotte,YT,-12.72215,45.058109
Acoua,Mayotte,YT,-12.72391,45.058189
Acoyapa,Nicaragua,NI,11.97028,-85.171127
Acqua di Sopra,Italy,IT,44.416672,9.25
Acquafondata,Italy,IT,41.54282,13.95282
Acquaformosa,Italy,IT,39.723099,16.08988
Acquafredda,Italy,IT,45.307381,10.41468
Acqualagna,Italy,IT,43.62606,12.67596
Acquanegra Cremonese,Italy,IT,45.170368,9.89087
Acquanegra sul Chiese,Italy,IT,45.162479,10.43468
Acquapendente,Italy,IT,42.743832,11.86415
Acquappesa,Italy,IT,39.493698,15.95208
Acquarica del Capo,Italy,IT,39.911121,18.24543
Acquaro,Italy,IT,38.554779,16.187201
Acquarossa,Switzerland,CH,46.451759,8.93999
Acquarossa,Switzerland,CH,46.45993,8.92733
Acquasanta Terme,Italy,IT,42.769939,13.41018
Acquasparta,Italy,IT,42.69014,12.54007
Acquaviva Collecroce,Italy,IT,41.866241,14.74733
Acquaviva Picena,Italy,IT,42.945351,13.81549
Acquaviva Platani,Italy,IT,37.571739,13.70156
Acquaviva d'Isernia,Italy,IT,41.672131,14.14892
Acquaviva delle Fonti,Italy,IT,40.897831,16.842489
Acquaviva delle Fonti,Italy,IT,40.897831,16.842489
Acquaviva,San Marino,SM,43.94593,12.4185
Acquedolci,Italy,IT,38.056061,14.58207
Acqui Terme,Italy,IT,44.67514,8.46755
Acqui Terme,Italy,IT,44.67514,8.46755
Acquigny,France,FR,49.1735,1.1765
Acre,Israel,IL,32.923611,35.072781
Acre,Brazil,BR,-9,-70
Acres Green,Colombia,CO,39.55666,-104.896088
Acri,Italy,IT,39.492901,16.383789
Acri,Italy,IT,39.492901,16.383789
Acsa,Hungary,HU,47.79425,19.387951
Actipan de Morelos,Mexico,MX,18.95833,-97.80278
Acton Vale,Canada,CA,45.65007,-72.565819
Acton,United Kingdom,GB,52.450001,-3.01667
Acton,United Kingdom,GB,51.50901,-0.2762
Acton,Morocco,MA,42.485088,-71.432838
Acton,Montenegro,ME,43.534248,-70.909782
Acton,Canada,CA,34.46999,-118.196739
Acton,Canada,CA,43.629688,-80.041489
Actopan,Mexico,MX,20.26667,-98.933327
Actopan,Mexico,MX,19.5,-96.616669
Actur,Spain,ES,41.670479,-0.88989
Acuexcomac,Mexico,MX,19.033331,-98.383331
Acul du Nord,Haiti,HT,19.683331,-72.316673
Acultzingo,Mexico,MX,18.716669,-97.316673
Acurenam,Equatorial Guinea,GQ,1.03225,10.64882
Acushnet Center,Morocco,MA,41.685081,-70.906418
Acushnet,Morocco,MA,41.68066,-70.907822
Acuto,Italy,IT,41.791519,13.17439
Acuítzio del Canje,Mexico,MX,19.48333,-101.333328
Acworth,Gabon,GA,34.065929,-84.67688
Acácias,Brazil,BR,-22.440001,-44.3228
Acámbaro,Mexico,MX,20.033331,-100.73333
Acăţari,Romania,RO,46.479752,24.63324
Acıgöl,Turkey,TR,38.550282,34.509171
Acıpayam,Turkey,TR,37.423851,29.349409
Acırlı,Turkey,TR,37.457298,41.29686
Ad Dabbah,Sudan,SD,18.049999,30.950001
Ad Dann,Yemen,YE,14.3518,43.852749
Ad Darb,Saudi Arabia,SA,17.722851,42.252609
Ad Darbāsīyah,Syrian Arab Republic,SY,37.072788,40.651989
Ad Dasmah,Kuwait,KW,29.365,48.001389
Ad Dawādimī,Saudi Arabia,SA,24.507721,44.392368
Ad Dawḩah,Palestinian Territory,PS,31.69948,35.18047
Ad Dchira,Western Sahara,EH,27.02611,-13.05194
Ad Dil,Yemen,YE,14.67199,43.818279
Ad Dilam,Saudi Arabia,SA,23.991461,47.162659
Ad Dilinjāt,Egypt,EG,30.827909,30.536329
Ad Dimnah,Yemen,YE,13.45398,44.181679
Ad Dindar,Sudan,SD,13.2,34.166672
Ad Dis ash Sharqiyah,Yemen,YE,14.90806,49.947781
Ad Douiem,Sudan,SD,14.0012,32.3116
Ad Dujayl,Iraq,IQ,33.846668,44.23444
Ad Durayhimi,Yemen,YE,14.63702,43.05505
Ad Duraykīsh,Syrian Arab Republic,SY,34.896721,36.132919
Ad Dānā,Syrian Arab Republic,SY,36.212521,36.769779
Ad Dīmās,Syrian Arab Republic,SY,33.587421,36.093239
Ad Dīwānīyah,Iraq,IQ,31.990511,44.93063
Ad-Damazin,Sudan,SD,11.7891,34.3592
Ada County,Indonesia,ID,43.416561,-116.126221
Ada,Oklahoma,OK,34.774529,-96.678337
Ada,Mongolia,MN,47.29969,-96.51535
Ada,Ohio,OH,40.769501,-83.822708
Ada,Serbia,RS,45.802502,20.12583
Adagum,Russia,RU,45.029999,38.02
Adahuesca,Spain,ES,42.146099,-0.00804
Adahuesca,Spain,ES,42.209068,-0.02378
Adair County,Cayman Islands,KY,37.11673,-85.299957
Adair County,Iowa,IA,41.333321,-94.466911
Adair County,Macao,MO,40.200031,-92.600189
Adair Village,Oregon,OR,44.670681,-123.21788
Adairsville,Gabon,GA,34.368698,-84.934113
Adak,Alaska,AK,51.880001,-176.658066
Adalaj,India,IN,23.16667,72.583328
Adalia,Spain,ES,41.648941,-5.12107
Adalia,Spain,ES,41.64381,-5.1263
Adam,Oman,OM,22.375601,57.523338
Adamantina,Brazil,BR,-21.68528,-51.072498
Adamaoua Region,Cameroon,CM,6.5,13.5
Adamawa State,Nigeria,NG,9.33333,12.5
Adamclisi,Romania,RO,44.083328,27.950001
Adaminaby,Australia,AU,-36.049999,148.716675
Adamov,Czech Republic,CZ,49.30162,16.652531
Adamovka,Russia,RU,51.522301,59.939602
Adamovo,Russia,RU,53.48333,109.316673
Adampur,India,IN,31.432779,75.717499
Adams Center,NewYork,NY,43.860062,-76.005478
Adams College,South Africa,ZA,-30.03199,30.81568
Adams County,Israel,IL,39.966709,-91.183472
Adams County,Montserrat,MS,31.547939,-91.355949
Adams County,Niger,NE,40.533352,-98.5009
Adams County,Colombia,CO,39.86665,-104.38385
Adams County,NorthDakota,ND,46.055561,-102.525436
Adams,Philippines,PH,18.466669,120.900002
Adams,Morocco,MA,42.624249,-73.117599
Adams,Montenegro,ME,45.327549,-68.900589
Adams,NewYork,NY,43.809231,-76.024094
Adams,Wisconsin,WI,43.956081,-89.818176
Adamsdorf,Germany,DE,53.424782,13.01537
Adamshof,Germany,DE,53.700001,13.08333
Adamshoffnung,Germany,DE,53.44656,12.36288
Adamstown,Pitcairn,PN,-25.065969,-130.101471
Adamstown,Moldova,MD,39.31094,-77.474709
Adamstown,Panama,PA,40.241199,-76.056328
Adamsville,Kansas,KS,37.173359,-97.17643
Adamsville,Tunisia,TN,35.235909,-88.390602
Adamsville,Albania,AL,33.600941,-86.956108
Adamuz,Spain,ES,38.026741,-4.52231
Adamuz,Spain,ES,38.086941,-4.57101
Adamów,Poland,PL,51.743351,22.264139
Adamówka,Poland,PL,50.258572,22.69595
Adana,Turkey,TR,36.985001,35.28809
Adana,Turkey,TR,37.001671,35.328892
Adanero,Spain,ES,40.94487,-4.60561
Adanero,Spain,ES,40.94239,-4.59522
Adani,Nigeria,NG,6.73971,7.01117
Adapazarı,Turkey,TR,40.78056,30.40333
Adar,Morocco,MA,30.141109,-8.37221
Adare,Ireland,IE,52.561939,-8.79556
Adassil,Morocco,MA,31.10783,-8.49083
Adavale,Australia,AU,-25.91667,144.600006
Adaúfe,Portugal,PT,41.587318,-8.39817
Adaúfe,Portugal,PT,41.589951,-8.39744
Addanki,India,IN,15.81667,79.98333
Adderbury,United Kingdom,GB,52.016899,-1.31192
Addiet Canna,Ethiopia,ET,11.26667,37.48333
Addingham,United Kingdom,GB,53.944519,-1.88424
Addington,United Kingdom,GB,51.349998,-0.03333
Addis Ababa,Ethiopia,ET,9.02497,38.746891
Addis,Lao People's Democratic Republic,LA,30.3538,-91.265388
Addison County,Vermont,VT,44.05006,-73.116226
Addison Heights,Holy See (Vatican City State),VA,38.855671,-77.060257
Addison,Texas,TX,32.961788,-96.82917
Addison,Israel,IL,41.931702,-87.98896
Addison,Montenegro,ME,44.618408,-67.744164
Addison,NewYork,NY,42.102852,-77.233589
Addlestone,United Kingdom,GB,51.371349,-0.49353
Addo,South Africa,ZA,-33.548328,25.689899
Adega,Portugal,PT,41.099998,-8.05
Adeje,Spain,ES,28.122709,-16.726
Adeje,Spain,ES,28.126329,-16.74332
Adel,Gabon,GA,31.13714,-83.423492
Adel,Iowa,IA,41.614429,-94.017448
Adela,Philippines,PH,12.44164,120.972908
Adelaide Hills,Australia,AU,-34.911179,138.707352
Adelaide Hills,Australia,AU,-34.901031,138.854568
Adelaide Lead,Australia,AU,-37.066669,143.683334
Adelaide River,Australia,AU,-13.23786,131.105606
Adelaide,South Africa,ZA,-32.70747,26.295641
Adelaide,Australia,AU,-34.933331,138.600006
Adelaide,Australia,AU,-34.920502,138.600586
Adelanto,Canada,CA,34.582771,-117.409218
Adelberg,Germany,DE,48.762272,9.59991
Adelberg,Germany,DE,48.766701,9.6
Adelboden,Switzerland,CH,46.491421,7.56031
Adelboden,Switzerland,CH,46.47369,7.55516
Adelebsen,Germany,DE,51.583328,9.75
Adelfia,Italy,IT,41.00423,16.871691
Adelfia,Italy,IT,41.00423,16.871691
Adelheidsdorf,Germany,DE,52.564041,10.06039
Adelheidsdorf,Germany,DE,52.549999,10.05
Adelia María,Argentina,AR,-33.631519,-64.020973
Adelmannsdorf,Germany,DE,49.216671,10.75
Adelmannsfelden,Germany,DE,48.954762,10.00466
Adelmannsfelden,Germany,DE,48.954819,10.00443
Adelong,Australia,AU,-35.316669,148.050003
Adelphi,Trinidad and Tobago,TT,11.20969,-60.717731
Adelphi,Moldova,MD,39.00317,-76.971916
Adelschlag,Germany,DE,48.833328,11.21667
Adelschlag,Germany,DE,48.833302,11.2167
Adelsdorf,Germany,DE,49.712158,10.895
Adelsdorf,Germany,DE,49.48333,10.68333
Adelsdorf,Germany,DE,49.716702,10.9
Adelsheim,Germany,DE,49.40361,9.39333
Adelshofen,Germany,DE,49.433331,10.16667
Adelshofen,Germany,DE,48.183331,11.11667
Adelshofen,Germany,DE,48.1833,11.1167
Adelshofen,Germany,DE,49.4333,10.1667
Adelsried,Germany,DE,48.416672,10.71667
Adelsried,Germany,DE,48.416698,10.7167
Adelzhausen,Germany,DE,48.356709,11.13851
Adelzhausen,Germany,DE,48.356201,11.1377
Ademuz,Spain,ES,40.06139,-1.28677
Ademuz,Spain,ES,40.075062,-1.22341
Aden,Yemen,YE,12.77944,45.036671
Aden,Canada,CA,49.033291,-111.318336
Adenau,Germany,DE,50.383331,6.93333
Adenbach,Germany,DE,49.666672,7.65
Adenbach,Germany,DE,49.666698,7.65
Adenbüttel,Germany,DE,52.383331,10.45
Adenbüttel,Germany,DE,52.383301,10.45
Adendorf,Germany,DE,53.281891,10.43787
Adendorf,Germany,DE,53.283298,10.45
Adensen,Germany,DE,52.17662,9.72934
Adenstedt,Germany,DE,52.25,10.16667
Adenstedt,Germany,DE,51.99852,9.93516
Adenstedt,Germany,DE,52,9.93333
Aderbiyevka,Russia,RU,44.599998,38.099998
Aderich,Germany,DE,50.583328,6.25
Aderklaa,Austria,AT,48.283329,16.533331
Aderklaa,Austria,AT,48.277401,16.53336
Adersleben,Germany,DE,51.900002,11.18333
Aderstedt,Germany,DE,51.76667,11.68333
Adh Dhayd,United Arab Emirates,AE,25.28812,55.881569
Adi Keyh,Eritrea,ER,14.84444,39.37722
Adiaké,Ivory Coast,CI,5.28634,-3.30402
Adibo,Ghana,GH,9.3024,0.01983
Adigeni,Georgia,GE,41.6819,42.698669
Adilcevaz,Turkey,TR,38.80389,42.734219
Adilpur,Pakistan,PK,27.93697,69.31868
Adil’-Yangiyurt,Russia,RU,43.563278,46.584621
Adipala,Indonesia,ID,-7.65972,109.150002
Adir,Jordan,JO,31.202169,35.761551
Adirampattinam,India,IN,10.35,79.400002
Adirejo,Indonesia,ID,-8.21201,112.638748
Adiwerna,Indonesia,ID,-6.9375,109.1325
Adiós,Spain,ES,42.686352,-1.73532
Adiós,Spain,ES,42.697788,-1.73417
Adjud,Romania,RO,46.099998,27.16667
Adjumani District,Uganda,UG,3.25,31.75
Adjumani,Uganda,UG,3.37786,31.790899
Adjuntas,Puerto Rico,PR,18.158489,-66.801773
Adjuntas,Puerto Rico,PR,18.162741,-66.722122
Adlay,Philippines,PH,9.40972,125.897499
Adldorf,Germany,DE,48.633331,12.83333
Adler,Russia,RU,43.43,39.919998
Adlershof,Germany,DE,52.435478,13.54825
Adlešiči,Slovenia,SI,45.533329,15.31667
Adlhausen,Germany,DE,48.783329,12.01667
Adligenswil,Switzerland,CH,47.065208,8.36124
Adligenswil,Switzerland,CH,47.07233,8.36841
Adlington,United Kingdom,GB,53.613232,-2.60676
Adlington,United Kingdom,GB,53.320419,-2.13658
Adliswil / Adliswil (Stadtkern),Switzerland,CH,47.311279,8.52675
Adliswil / Hündli-Zopf,Switzerland,CH,47.316368,8.51888
Adliswil / Oberleimbach,Switzerland,CH,47.320202,8.51508
Adliswil / Sonnenberg,Switzerland,CH,47.309582,8.52055
Adliswil / Sood,Switzerland,CH,47.318699,8.52425
Adliswil / Tal,Switzerland,CH,47.31142,8.53446
Adliswil,Switzerland,CH,47.309971,8.52462
Adliswil,Switzerland,CH,47.309341,8.52127
Adlkofen,Germany,DE,48.549999,12.26667
Adlkofen,Germany,DE,48.549999,12.2667
Admannshagen,Germany,DE,54.133331,12
Admannshagen-Bargeshagen,Germany,DE,54.130379,11.99915
Admannshagen-Bargeshagen,Germany,DE,54.116699,11.9833
Admiral,Canada,CA,49.716759,-108.018059
Admont,Austria,AT,47.575371,14.46075
Admont,Austria,AT,47.56155,14.47188
Adnet,Austria,AT,47.683331,13.13333
Adnet,Austria,AT,47.710732,13.16122
Ado-Ekiti,Nigeria,NG,7.621,5.2215
Ado-Odo,Nigeria,NG,6.6,2.93333
Adobes,Spain,ES,40.675838,-1.67916
Adobes,Spain,ES,40.672459,-1.66744
Adok,Uganda,UG,2.15,32.549999
Adolfo Gonzáles Chaves,Argentina,AR,-38.033329,-60.099998
Adolfo López Mateos,Mexico,MX,28.466669,-107.300003
Adolfo Ruíz Cortínes,Mexico,MX,25.75,-108.75
Adolfo,Brazil,BR,-21.235001,-49.643608
Adolfshütte,Germany,DE,51.26667,14.45
Adony,Hungary,HU,47.1194,18.864929
Ador,Spain,ES,38.918228,-0.22247
Ador,Spain,ES,38.933399,-0.24581
Adorf,Germany,DE,50.316669,12.26667
Adorjan,Serbia,RS,45.997219,20.040279
Adoru,Nigeria,NG,6.97661,7.16268
Adoufe,Portugal,PT,41.340698,-7.73786
Adoufe,Portugal,PT,41.35099,-7.73706
Adra,India,IN,23.5,86.666672
Adra,Spain,ES,36.749611,-3.02055
Adra,Spain,ES,36.765919,-3.0547
Adrada de Haza,Spain,ES,41.59454,-3.82326
Adrada de Haza,Spain,ES,41.597771,-3.82069
Adrada de Pirón,Spain,ES,41.05257,-4.05107
Adrada de Pirón,Spain,ES,41.06308,-4.05222
Adradas,Spain,ES,41.350979,-2.47373
Adradas,Spain,ES,41.339958,-2.48342
Adrados,Spain,ES,41.36816,-4.11186
Adrados,Spain,ES,41.367821,-4.10786
Adrall,Spain,ES,42.326302,1.40086
Adrano,Italy,IT,37.661751,14.83478
Adrano,Italy,IT,37.661751,14.83478
Adrar,Mauritania,MR,20.50222,-10.07111
Adrar,Algeria,DZ,25.75,-1
Adrar,Algeria,DZ,27.87429,-0.29388
Adrara San Martino,Italy,IT,45.702278,9.94896
Adrara San Rocco,Italy,IT,45.715778,9.95906
Adraskan,Afghanistan,AF,33.645729,62.269588
Adrasmon,Tajikistan,TJ,40.64716,69.985588
Adria,Italy,IT,45.056389,12.05778
Adria,Italy,IT,45.056492,12.05492
Adrian,Macao,MO,38.397518,-94.351624
Adrian,Michigan,MI,41.897549,-84.03717
Adrian,Mongolia,MN,43.634972,-95.9328
Adrianovskaya,Russia,RU,51.805,103.809723
Adrianópolis,Brazil,BR,-24.657221,-48.991112
Adro,Italy,IT,45.617882,9.96266
Adré,Chad,TD,13.46667,22.200001
Adsubia,Spain,ES,38.84819,-0.15324
Adsubia,Spain,ES,38.852009,-0.16648
Adtugan,Philippines,PH,7.81194,124.854439
Aduana,Mexico,MX,20.991671,-86.866669
Aduanas,Spain,ES,38.796242,0.18198
Aduard,Netherlands,NL,53.256672,6.45972
Aduna,Spain,ES,43.203751,-2.05033
Aduna,Spain,ES,43.214809,-2.05475
Adunaţi,Romania,RO,45.133331,25.616671
Adur District,United Kingdom,GB,50.849998,-0.33333
Adustina,Brazil,BR,-10.53333,-38.099998
Aduthurai,India,IN,11.01542,79.480927
Aduyevo,Russia,RU,55.959999,36.970001
Advance,Macao,MO,37.1045,-89.910652
Advance,New Caledonia,NC,35.94125,-80.409218
Advancetown,Australia,AU,-28.066669,153.266663
Adventure Bay,Australia,AU,-43.366669,147.333328
Adwolf,Holy See (Vatican City State),VA,36.78928,-81.582062
Adyge-Khabl’,Russia,RU,44.334339,41.93922
Adygeysk,Russia,RU,44.880001,39.189999
Adyār,India,IN,13.00444,80.258331
Adzaneta,Spain,ES,40.21616,-0.17028
Adzghapsha,Georgia,GE,43.090279,40.75222
Adzhamka,Ukraine,UA,48.542439,32.535419
Adzhimushkay,Ukraine,UA,45.387222,36.523609
Adzigezhi,Georgia,GE,43.057777,40.973888
Adzopé,Ivory Coast,CI,6.10694,-3.86194
Adács,Hungary,HU,47.692101,19.976959
Adámas,Greece,GR,36.73333,24.433331
Adâncata,Romania,RO,47.73333,26.299999
Adâncata,Romania,RO,44.76667,26.433331
Adémia de Cima,Portugal,PT,40.250381,-8.44717
Adămuş,Romania,RO,46.299999,24.23333
Adımova,Turkey,TR,39.635979,43.041248
Adıyaman,Turkey,TR,37.75,38.25
Adıyaman,Turkey,TR,37.764408,38.276291
Adūr,India,IN,9.16667,76.73333
Aebtissinwisch,Germany,DE,53.966671,9.28333
Aebtissinwisch,Germany,DE,53.966702,9.28333
Aecherli,Switzerland,CH,46.833328,8.18333
Aedermannsdorf,Switzerland,CH,47.303741,7.61052
Aedermannsdorf,Switzerland,CH,47.312149,7.59274
Aefeo,Indonesia,ID,-8.7633,121.673897
Aegela,Indonesia,ID,-8.7323,121.337196
Aegidienberg,Germany,DE,50.666672,7.3
Aegina,Greece,GR,37.74667,23.4275
Aegviidu vald,Estonia,EE,59.279411,25.625719
Aegviidu,Estonia,EE,59.285831,25.61417
Aelande,Indonesia,ID,-8.59565,121.725197
Aemalu,Indonesia,ID,-8.7657,121.944199
Aemura,Indonesia,ID,-8.8087,121.668503
Aengceleng,Indonesia,ID,-7.7177,114.074097
Aermanis,Indonesia,ID,-3.71978,128.087448
Aero Vista,Texas,TX,31.82427,-106.388603
Aeroflotskiy,Ukraine,UA,45.016666,34.033333
Aeroport,Russia,RU,55.414444,37.839722
Aeroporto Hercilio Luz,Brazil,BR,-27.668711,-48.546951
Aerzen,Germany,DE,52.04953,9.25856
Aesch (BL),Switzerland,CH,47.473949,7.58539
Aesch,Switzerland,CH,47.471039,7.5973
Aesch,Switzerland,CH,47.3297,8.6541
Aeschi b. Spiez,Switzerland,CH,46.658482,7.6965
Aeschi bei Spiez,Switzerland,CH,46.623508,7.74868
Aeschiried,Switzerland,CH,46.646229,7.72582
Aeschlen ob Gunten,Switzerland,CH,46.719978,7.70056
Aeschlen,Switzerland,CH,46.832741,7.65199
Aeschlenberg,Switzerland,CH,46.786629,7.2612
Aespa,Estonia,EE,59.19611,24.658609
Aeteke,Indonesia,ID,-8.8,121.977798
Aettenschwil,Switzerland,CH,47.183559,8.37185
Afa,France,FR,41.98362,8.79469
Afaahiti,French Polynesia,PF,-17.75,-149.283325
Afaha Oku,Nigeria,NG,5.04827,7.9217
Afaki,Afghanistan,AF,36.66172,69.350952
Afanasovo,Russia,RU,54.953205,36.41814
Afanasovo,Russia,RU,57.98,41.330002
Afanas’yevo,Russia,RU,58.86552,53.257961
Afanas’yevo,Russia,RU,58.860001,42.459999
Afar Region,Ethiopia,ET,12,41.5
Afareaitu,French Polynesia,PF,-17.549999,-149.783325
Afenga,Samoa,WS,-13.79726,-171.853073
Affalterbach,Germany,DE,48.922668,9.32362
Affalterbach,Germany,DE,48.916698,9.31667
Affaltern,Germany,DE,48.48333,10.73333
Affeltrangen,Switzerland,CH,47.527012,9.03207
Affery,Ivory Coast,CI,6.315,-3.96028
Affi,Italy,IT,45.55439,10.77738
Affile,Italy,IT,41.884121,13.09539
Affing,Germany,DE,48.466671,10.98333
Affing,Germany,DE,48.466702,10.9833
Affinghausen,Germany,DE,52.783329,8.88333
Affinghausen,Germany,DE,52.783298,8.88333
Affler,Germany,DE,50.01667,6.15
Affler,Germany,DE,50.016701,6.15
Affoltern / Hasenbüel,Switzerland,CH,47.273239,8.45218
Affoltern / Oberdorf,Switzerland,CH,47.277988,8.45041
Affoltern / Sonnenberg,Switzerland,CH,47.280548,8.46008
Affoltern / Unterdorf,Switzerland,CH,47.28257,8.45086
Affoltern am Albis,Switzerland,CH,47.277431,8.45128
Affoltern am Albis,Switzerland,CH,47.28167,8.45023
Affoux,France,FR,45.844959,4.40454
Affoux,France,FR,45.8451,4.4036
Affton,Macao,MO,38.55061,-90.333168
Afgooye,Somalia,SO,2.1381,45.121201
Afholderbach,Germany,DE,50.933331,8.13333
Afif,Saudi Arabia,SA,23.9065,42.91724
Afife,Portugal,PT,41.777679,-8.84444
Afikpo,Nigeria,NG,5.89312,7.93735
Afipskiy,Russia,RU,44.902119,38.843929
Aflenz Kurort,Austria,AT,47.533329,15.23333
Aflenz Kurort,Austria,AT,47.573952,15.22619
Aflou,Algeria,DZ,34.112801,2.10228
Afogados da Ingazeira,Brazil,BR,-7.75083,-37.639172
Afonasovo Pervoye,Russia,RU,55.810001,38.290001
Afonino,Russia,RU,64.599998,33.459999
Afonino,Russia,RU,56.262009,44.095032
Afonso Bezerra,Brazil,BR,-5.49833,-36.505562
Afonso Cláudio,Brazil,BR,-20.074169,-41.12389
Afragola,Italy,IT,40.92601,14.31083
Afragola,Italy,IT,40.92601,14.31083
Africo Nuovo,Italy,IT,38.050671,16.1332
Africo Vecchio,Italy,IT,38.066669,15.98333
Afrikanda,Russia,RU,67.442886,32.782791
Afrátion,Greece,GR,38.450001,23.683331
Afterlee,Australia,AU,-28.58333,152.816666
Aftersteg,Germany,DE,47.842892,7.92844
Afton,Oklahoma,OK,36.693691,-94.96302
Afton,Mongolia,MN,44.902748,-92.783539
Afton,Wyoming,WY,42.72493,-110.93187
Afula,Israel,IL,32.611111,35.291672
Afumaţi,Romania,RO,44.51667,26.26667
Afumaţi,Romania,RO,44,23.466669
Afurada de Baixo,Portugal,PT,41.14389,-8.64639
Afusing Centro,Philippines,PH,17.8526,121.6269
Afuá,Brazil,BR,-0.15667,-50.386669
Afyonkarahisar,Turkey,TR,38.75,30.66667
Afyonkarahisar,Turkey,TR,38.756672,30.543329
Afzalgarh,India,IN,29.4,78.683327
Afzalpur,India,IN,17.200001,76.349998
Afántou,Greece,GR,36.293541,28.162251
Afşin,Turkey,TR,38.247688,36.91399
Ag-ambulong,Philippines,PH,11.3684,122.509399
Aga,Philippines,PH,14.0965,120.80217
Agadez,Niger,NE,19.75,10.25
Agadez,Niger,NE,16.97333,7.99111
Agadir Melloul,Morocco,MA,30.22492,-7.79601
Agadir,Morocco,MA,30.420179,-9.59815
Agadir,Morocco,MA,30.42013,-9.59802
Agadir-Ida-ou-Tnan,Morocco,MA,30.58333,-9.5
Agaete,Spain,ES,28.100229,-15.69998
Agaete,Spain,ES,28.10363,-15.69431
Agafonovo,Russia,RU,55.619999,36.57
Agaie,Nigeria,NG,9.01667,6.31667
Agalatovo,Russia,RU,60.219501,30.27388
Agallas,Spain,ES,40.448669,-6.44176
Agallas,Spain,ES,40.418991,-6.42694
Agalteca,Honduras,HN,14.45,-87.26667
Agametta,Eritrea,ER,15.33333,39.216671
Agana Heights Mayor's Office,Guam,GU,13.46494,144.747574
Agana Heights Village,Guam,GU,13.46559,144.747955
Aganan,Philippines,PH,10.78333,122.533333
Agapia,Romania,RO,47.166672,26.283331
Agapovka,Russia,RU,53.297298,59.1348
Agar,India,IN,23.700001,76.01667
Agara,Georgia,GE,42.037609,43.823818
Agarak,Armenia,AM,39.206841,46.544601
Agarak,Armenia,AM,41.010719,44.468449
Agarakadzor,Armenia,AM,39.734051,45.352741
Agarakavan,Armenia,AM,40.329319,44.070332
Agarino,Russia,RU,55.060001,37.810001
Agarn,Switzerland,CH,46.297489,7.66322
Agarn,Switzerland,CH,46.271061,7.66329
Agarpāra,India,IN,22.683331,88.366669
Agartala,India,IN,23.83639,91.275002
Agashkino,Russia,RU,55.299999,38.209999
Agassiz,Canada,CA,49.232979,-121.769257
Agat Mayor's Office,Guam,GU,13.38801,144.659286
Agat Village,Guam,GU,13.38855,144.658524
Agathenburg,Germany,DE,53.56065,9.5318
Agathenburg,Germany,DE,53.5667,9.53333
Agatovo,Bulgaria,BG,43.133331,25
Agatovo,Bulgaria,BG,43.133331,25
Agawam,Morocco,MA,42.069538,-72.614807
Agay,Philippines,PH,9.05361,125.58667
Agazzano,Italy,IT,44.94566,9.51856
Agbabu,Nigeria,NG,6.58862,4.8343
Agbannawag,Philippines,PH,17.385929,121.518852
Agbannawag,Philippines,PH,15.6792,121.083298
Agbor,Nigeria,NG,6.25183,6.19337
Agboville,Ivory Coast,CI,5.92801,-4.21319
Agcogon,Philippines,PH,12.06146,121.959106
Agdangan,Philippines,PH,13.8725,121.915283
Agde,France,FR,43.310829,3.47583
Agde,France,FR,43.316669,3.46667
Agdz,Morocco,MA,30.69356,-6.44628
Agdzhabedy,Azerbaijan,AZ,40.05278,47.461391
Ageki,Japan,JP,35.150002,136.516663
Agematsu,Japan,JP,35.784611,137.692673
Agen,France,FR,44.200001,0.63333
Agen,France,FR,44.200001,0.63333
Agenbach,Germany,DE,48.700001,8.58333
Agenebode,Nigeria,NG,7.106,6.6966
Ageoshimo,Japan,JP,35.969719,139.588608
Agerola,Italy,IT,40.637711,14.53884
Agerskov Hede,Denmark,DK,56.25,9.2
Agethorst,Germany,DE,54.01947,9.4359
Agethorst,Germany,DE,54.019508,9.43582
Ageyevo,Russia,RU,54.158829,36.469269
Aggeliká,Greece,GR,37.439201,25.3365
Aggius,Italy,IT,40.93037,9.06592
Aggsbach,Austria,AT,48.294041,15.40382
Aggsbach,Austria,AT,48.283329,15.41667
Aggugaddah,Philippines,PH,17.70541,121.810654
Aghaboe,Ireland,IE,52.918892,-7.51194
Aghabullogue,Ireland,IE,51.933331,-8.8
Aghacurreen,Ireland,IE,52.089722,-9.56528
Aghada,Ireland,IE,51.839169,-8.21222
Aghagallon,United Kingdom,GB,54.5,-6.3
Aghajari,Iran,IR,30.7006,49.831501
Aghavannagh,Ireland,IE,52.914169,-6.41694
Aghavas,Ireland,IE,53.953892,-7.71611
Aghavnadzor,Armenia,AM,39.782219,45.227531
Aghavnadzor,Armenia,AM,40.581951,44.695808
Aghavnatun,Armenia,AM,40.23238,44.249741
Aghdam Rayon,Azerbaijan,AZ,40,47
Aghdash Rayon,Azerbaijan,AZ,40.583328,47.416672
Aghireșu-Fabrici,Romania,RO,46.883331,23.25
Aghjabadi Rayon,Azerbaijan,AZ,40,47.416672
Aghstafa Rayon,Azerbaijan,AZ,41.25,45.5
Aghstafa,Azerbaijan,AZ,41.118889,45.453892
Aghsu Rayon,Azerbaijan,AZ,40.5,48.333328
Aghsu,Azerbaijan,AZ,40.570278,48.400871
Aghāpur,India,IN,27.15,77.51667
Agidel’,Russia,RU,55.9077,53.935501
Agiez,Switzerland,CH,46.721031,6.50751
Agiez,Switzerland,CH,46.718182,6.50766
Agigea,Romania,RO,44.083328,28.616671
Agilde,Portugal,PT,41.361382,-8.11247
Agilde,Portugal,PT,41.363258,-8.1235
Aginaga,Spain,ES,43.118252,-2.32378
Agincourt,Canada,CA,43.783421,-79.282898
Aginskoye,Russia,RU,55.259998,94.900002
Aginskoye,Russia,RU,51.099998,114.529999
Agios Dimitrios,Greece,GR,39.400002,21.08333
Agios Dimitrios,Greece,GR,37.933331,23.73333
Agios Georgis,Greece,GR,39.723629,19.69969
Agios Kirykos,Greece,GR,37.614719,26.294439
Agios Prokopios,Greece,GR,37.075378,25.34984
Agira,Italy,IT,37.656151,14.52158
Agirish,Russia,RU,61.924721,63.02306
Agiá,Greece,GR,39.717781,22.763611
Agiásos,Greece,GR,39.084999,26.370001
Agkathiá,Greece,GR,40.555828,22.470831
Agkídia,Greece,GR,37.099998,25.4
Aglalana,Philippines,PH,11.17722,122.65667
Aglasterhausen,Germany,DE,49.356941,8.98694
Aglasterhausen,Germany,DE,49.356899,8.98694
Aglayan,Philippines,PH,8.055,125.134171
Agliana,Italy,IT,43.906551,11.00621
Agliano Terme,Italy,IT,44.790249,8.25044
Aglientu,Italy,IT,41.079571,9.11272
Aglipay,Philippines,PH,16.488899,121.644997
Aglish,Ireland,IE,52.06889,-7.8275
Agliè,Italy,IT,45.368,7.768
Aglomazovo,Russia,RU,54.48,40.259998
Aglona,Latvia,LV,56.133331,27.01667
Aglonas Novads,Latvia,LV,56.10667,27.100559
Agna,Italy,IT,45.168591,11.95651
Agnadello,Italy,IT,45.44437,9.55706
Agnana Calabra,Italy,IT,38.30267,16.2229
Agnanteró,Greece,GR,39.487221,21.84556
Agneaux,France,FR,49.119049,-1.1061
Agneaux,France,FR,49.116669,-1.1
Agnesdorf,Germany,DE,51.495392,11.0919
Agnetz,France,FR,49.38118,2.38621
Agnibilékrou,Ivory Coast,CI,7.13444,-3.20472
Agnita,Romania,RO,45.966671,24.616671
Agno,Philippines,PH,16.1161,119.799301
Agno,Switzerland,CH,45.98333,8.85
Agnone,Italy,IT,41.809429,14.37762
Agnos,France,FR,43.166672,-0.61667
Agnos,France,FR,43.166672,-0.61667
Agnosine,Italy,IT,45.649689,10.35267
Agny,France,FR,50.25914,2.76002
Agnéby,Ivory Coast,CI,6,-4
Ago-Are,Nigeria,NG,8.5,3.41667
Agogo,Ghana,GH,6.80004,-1.08193
Agolada,Spain,ES,42.792542,-8.0504
Agonac,France,FR,45.29248,0.75024
Agonac,France,FR,45.283329,0.75
Agoncillo,Philippines,PH,13.93556,120.93261
Agoncillo,Spain,ES,42.446671,-2.2898
Agoncillo,Spain,ES,42.436218,-2.27884
Agoo,Philippines,PH,16.3228,120.3666
Agoo,Philippines,PH,16.08333,120.099998
Agordo,Italy,IT,46.285561,12.0375
Agos,Philippines,PH,13.3434,123.3983
Agost,Spain,ES,38.440029,-0.63836
Agost,Spain,ES,38.448582,-0.61758
Agosta,Italy,IT,41.981621,13.03269
Agou,Ivory Coast,CI,5.98289,-3.94393
Agoura Hills,Canada,CA,34.136391,-118.774529
Agoura,Canada,CA,34.143059,-118.737869
Agoy,Russia,RU,44.139999,39.029999
Agpangi,Philippines,PH,10.57716,123.423203
Agra,India,IN,27.183332,78.01667
Agra,Italy,IT,46.036678,8.76833
Agrado,Colombia,CO,2.25725,-75.771423
Agramunt,Spain,ES,41.786861,1.09683
Agramunt,Spain,ES,41.803322,1.07083
Agras,Portugal,PT,40.549992,-8.53613
Agrate Brianza,Italy,IT,45.577782,9.35145
Agrate Conturbia,Italy,IT,45.675468,8.55973
Agrelo,Argentina,AR,-33.118519,-68.88694
Agrelos,Portugal,PT,41.30772,-7.51199
Agres,Spain,ES,38.783329,-0.51667
Agres,Spain,ES,38.78738,-0.51236
Agrestina,Brazil,BR,-8.45806,-35.944721
Agriboa,Portugal,PT,41.796539,-8.56922
Agricola Village,Guyana,GY,6.46667,-58.166672
Agrigento,Italy,IT,37.450001,13.5
Agrigento,Italy,IT,37.320839,13.58876
Agrigento,Italy,IT,37.320839,13.58876
Agrij,Romania,RO,47.066669,23.133329
Agrilia,Greece,GR,37.7435,20.864321
Agriswil,Switzerland,CH,46.95546,7.19784
Agriá,Greece,GR,39.333328,23.01667
Agrogorod,Russia,RU,55.274078,37.839317
Agronom,Russia,RU,45.13871,39.193859
Agropoli,Italy,IT,40.346901,14.99655
Agropoli,Italy,IT,40.346901,14.99655
Agryz,Russia,RU,56.52034,52.994221
Agrícola Oriental Sur,Mexico,MX,19.4,-99.066673
Agrínio,Greece,GR,38.621391,21.40778
Agrón,Spain,ES,37.030231,-3.8287
Agrón,Spain,ES,37.018711,-3.81667
Agua Amarga,Spain,ES,36.94001,-1.93434
Agua Azul Rancho,Honduras,HN,14.9,-87.949997
Agua Azul,Honduras,HN,14.91667,-87.966667
Agua Blanca Sur,Honduras,HN,15.25,-87.883331
Agua Blanca,Guatemala,GT,14.5,-89.650002
Agua Blanca,Venezuela,VE,10.06028,-66.465561
Agua Blanca,Venezuela,VE,9.66146,-69.107521
Agua Blanca,Mexico,MX,27.1,-109.716667
Agua Buena,Panama,PA,7.81667,-80.400002
Agua Caliente,Honduras,HN,14.88333,-88.816673
Agua Dulce,Mexico,MX,20.366671,-97.283333
Agua Dulce,Mexico,MX,18.133329,-94.133331
Agua Dulce,Canada,CA,34.49638,-118.32563
Agua Dulce,Texas,TX,31.655109,-106.13887
Agua Fria,NewMexico,NM,35.65448,-106.02224
Agua Fria,NewMexico,NM,36.430031,-105.298897
Agua Fría,Honduras,HN,13.46889,-87.551109
Agua Prieta,Mexico,MX,31.299999,-109.566673
Agua Salada,Venezuela,VE,10.76809,-69.568947
Agua Santa del Yuna,Dominican Republic,DO,19.152821,-69.77977
Agua Verde,Mexico,MX,22.9,-106.050003
Agua de Dios,Colombia,CO,4.37648,-74.669952
Agua de Oro,Argentina,AR,-31.06661,-64.300171
Agua-García,Spain,ES,28.46386,-16.40765
Aguacatán,Guatemala,GT,15.34306,-91.311668
Aguachica,Colombia,CO,8.30844,-73.6166
Aguada Zona Urbana,Puerto Rico,PR,18.380289,-67.188339
Aguada de Cima,Portugal,PT,40.522911,-8.427
Aguada de Cima,Portugal,PT,40.526829,-8.40004
Aguada de Pasajeros,Cuba,CU,22.385,-80.85083
Aguada,Philippines,PH,12.81667,123.833328
Aguada,Puerto Rico,PR,18.379391,-67.18824
Aguada,Puerto Rico,PR,18.3605,-67.174629
Aguadas,Colombia,CO,5.61161,-75.456238
Aguadilla,Puerto Rico,PR,18.42745,-67.154068
Aguadilla,Puerto Rico,PR,18.42745,-67.154068
Aguadulce,Spain,ES,37.252731,-4.99269
Aguadulce,Spain,ES,36.814091,-2.57235
Aguadulce,Panama,PA,8.25,-80.550003
Aguadulce,Spain,ES,37.25069,-4.97988
Aguaje el Zapote,Mexico,MX,15.77111,-96.263062
Agualote,Honduras,HN,15.33528,-88.553062
Agualva,Portugal,PT,38.771221,-9.29286
Aguamansa,Spain,ES,28.358669,-16.49634
Aguanga,Canada,CA,33.44281,-116.865021
Aguanish,Canada,CA,50.216839,-62.081829
Aguarón,Spain,ES,41.339008,-1.27055
Aguarón,Spain,ES,41.332821,-1.29812
Aguas Buenas,Puerto Rico,PR,18.256901,-66.102943
Aguas Buenas,Puerto Rico,PR,18.256901,-66.102943
Aguas Claras Comunidad,Puerto Rico,PR,18.24468,-65.666206
Aguas Claras,Puerto Rico,PR,18.252729,-65.653503
Aguas Corrientes,Uruguay,UY,-34.521938,-56.393608
Aguas Verdes,Peru,PE,-3.48139,-80.245003
Aguas del Padre,Honduras,HN,14.56667,-87.883331
Aguasal,Spain,ES,41.274948,-4.6529
Aguasal,Spain,ES,41.304089,-4.62636
Aguasay,Venezuela,VE,9.42489,-63.73077
Aguascaldas,Spain,ES,42.413921,0.44364
Aguascalientes,Mexico,MX,21.883329,-102.300003
Aguascalientes,Mexico,MX,21.883329,-102.300003
Aguatón,Spain,ES,40.671581,-1.23475
Aguatón,Spain,ES,40.668449,-1.22497
Aguaviva,Spain,ES,40.822109,-0.19532
Aguaviva,Spain,ES,40.822029,-0.19909
Aguaytía,Peru,PE,-9.03741,-75.509239
Aguazul,Colombia,CO,5.17282,-72.547058
Aguaí,Brazil,BR,-22.059441,-46.978611
Aguda,Portugal,PT,39.938889,-8.31522
Agudo,Spain,ES,38.981831,-4.87133
Agudo,Brazil,BR,-29.645281,-53.240002
Agudo,Spain,ES,39.021431,-4.80986
Agudos do Sul,Brazil,BR,-25.9925,-49.335281
Agudos,Brazil,BR,-22.46917,-48.987499
Agueiro de Baixo,Portugal,PT,40.969601,-8.62901
Aguelmous,Morocco,MA,33.161388,-5.84626
Aguelmous,Morocco,MA,33.150002,-5.83
Agugliano,Italy,IT,43.54356,13.38947
Agugliaro,Italy,IT,45.32539,11.5842
Aguiar da Beira,Portugal,PT,40.783192,-7.52691
Aguiar de Sousa,Portugal,PT,41.127258,-8.44659
Aguiar de Sousa,Portugal,PT,41.115952,-8.44037
Aguiar,Portugal,PT,38.392849,-7.96693
Aguiar,Portugal,PT,38.384361,-7.97852
Aguilafuente,Spain,ES,41.226669,-4.11185
Aguilafuente,Spain,ES,41.24757,-4.08655
Aguilar de Bureba,Spain,ES,42.589741,-3.32913
Aguilar de Bureba,Spain,ES,42.59082,-3.33377
Aguilar de Campoo,Spain,ES,42.794521,-4.25892
Aguilar de Campoo,Spain,ES,42.792919,-4.2597
Aguilar de Campos,Spain,ES,41.983749,-5.18118
Aguilar de Campos,Spain,ES,41.976269,-5.19669
Aguilar de Codés,Spain,ES,42.612492,-2.38987
Aguilar de Codés,Spain,ES,42.611679,-2.38345
Aguilar de Segarra,Spain,ES,41.748219,1.62919
Aguilar de Segarra,Spain,ES,41.72974,1.61586
Aguilar del Alfambra,Spain,ES,40.590271,-0.79589
Aguilar del Alfambra,Spain,ES,40.58947,-0.8135
Aguilar del Río Alhama,Spain,ES,41.96212,-1.9934
Aguilar del Río Alhama,Spain,ES,41.953678,-1.9926
Aguilar,Philippines,PH,15.8884,120.237801
Aguilar,Spain,ES,37.514759,-4.65717
Aguilar,Bolivia,BO,-21.283331,-63.433331
Aguilares,El Salvador,SV,13.95722,-89.18972
Aguilares,Argentina,AR,-27.4338,-65.614273
Aguililla,Mexico,MX,18.73333,-102.73333
Aguilita,Puerto Rico,PR,18.0233,-66.534622
Aguillo,Spain,ES,42.737942,-2.63767
Aguiló,Spain,ES,41.55278,1.41838
Aguilón,Spain,ES,41.29467,-1.04634
Aguilón,Spain,ES,41.29192,-1.02744
Aguim,Portugal,PT,40.415508,-8.44739
Aguim,Portugal,PT,40.412739,-8.44387
Aguining,Philippines,PH,10.0861,124.594398
Aguisan,Philippines,PH,10.16556,122.860558
Aguié,Niger,NE,13.50601,7.77863
Agulhas,South Africa,ZA,-34.8223,20.01734
Agullana,Spain,ES,42.394081,2.84666
Agullana,Spain,ES,42.392239,2.8467
Agullent,Spain,ES,38.822731,-0.54833
Agullent,Spain,ES,38.842312,-0.55328
Agulo,Spain,ES,28.18778,-17.196779
Agulo,Spain,ES,28.188419,-17.19532
Agulu,Nigeria,NG,6.11,7.0724
Agupit,Philippines,PH,13.4225,123.324722
Agurain / Salvatierra,Spain,ES,42.85162,-2.39123
Agusan,Philippines,PH,8.49056,124.737221
Agustín Codazzi,Colombia,CO,10.03409,-73.236107
Agutaya,Philippines,PH,11.148,120.941704
Aguçadoura,Portugal,PT,41.431759,-8.78038
Agvali,Russia,RU,42.538528,46.119671
Agyagbánya,Hungary,HU,47.349998,19.450001
Agía Eleoúsa,Greece,GR,39.599998,19.9
Agía Galíni,Greece,GR,35.099998,24.683331
Agía Marína,Greece,GR,37.150002,26.866671
Agía Marína,Greece,GR,35.51667,23.933331
Agía Paraskeví,Greece,GR,39.248058,26.271669
Agía Paraskeví,Greece,GR,38.01667,23.83333
Agía Paraskeví,Greece,GR,40.48333,23.049999
Agía Triáda,Greece,GR,39.463329,21.898609
Agía Triáda,Greece,GR,38.349998,22.91667
Agía Triáda,Greece,GR,40.499439,22.87611
Agía Varvára,Greece,GR,37.98333,23.66667
Agía Varvára,Greece,GR,35.133331,25
Agíasma,Greece,GR,40.90889,24.657221
Agón,Spain,ES,41.85574,-1.45233
Agón,Spain,ES,41.849571,-1.4413
Agüimes,Spain,ES,27.90539,-15.44609
Agüimes,Spain,ES,27.891451,-15.44071
Agăş,Romania,RO,46.48333,26.216669
Aha,Germany,DE,49.099998,10.75
Ahal,Turkmenistan,TM,38.25,59.75
Aham,Germany,DE,48.533329,12.46667
Aham,Germany,DE,48.349998,12.16667
Aham,Germany,DE,48.533298,12.4667
Ahar,Iran,IR,38.477402,47.069901
Ahaus,Germany,DE,52.066669,7
Ahausen,Germany,DE,53.066669,9.31667
Ahausen,Germany,DE,53.0667,9.31667
Ahden,Germany,DE,51.602242,8.62341
Ahdenkallio,Finland,FI,60.63995,24.88652
Ahe,Germany,DE,50.833328,7.45
Ahegg,Germany,DE,47.716671,9.85
Aherla,Ireland,IE,51.85722,-8.73889
Ahero,Kenya,KE,-0.17462,34.916302
Ahetze,France,FR,43.40432,-1.57192
Ahetze,France,FR,43.400002,-1.56667
Aheyivka,Ukraine,UA,47.916668,30.299999
Ahfir,Morocco,MA,34.953678,-2.10027
Ahfir,Morocco,MA,34.95274,-2.10665
Ahigal de Villarino,Spain,ES,41.158192,-6.38037
Ahigal de Villarino,Spain,ES,41.165531,-6.37303
Ahigal de los Aceiteros,Spain,ES,40.872311,-6.74702
Ahigal de los Aceiteros,Spain,ES,40.862358,-6.76039
Ahigal,Spain,ES,40.189541,-6.18815
Ahigal,Spain,ES,40.165161,-6.2
Ahillones,Spain,ES,38.26667,-5.85
Ahillones,Spain,ES,38.247452,-5.89255
Ahipara,New Zealand,NZ,-35.166672,173.166672
Ahiri,India,IN,19.4,80.01667
Ahlat,Turkey,TR,38.751781,42.48135
Ahlbeck,Germany,DE,53.666672,14.2
Ahlbeck,Germany,DE,53.666698,14.2
Ahlberg,Germany,DE,51.453369,9.50541
Ahlden,Germany,DE,52.76667,9.55
Ahlefeld,Germany,DE,54.400002,9.66667
Ahlem,Germany,DE,52.378109,9.66436
Ahlen,Germany,DE,51.763378,7.8887
Ahlerstedt,Germany,DE,53.400002,9.45
Ahlerstedt,Germany,DE,53.400002,9.45
Ahlsdorf,Germany,DE,51.545429,11.46655
Ahlsdorf,Germany,DE,51.549999,11.4667
Ahlsen,Germany,DE,52.299999,8.66667
Ahlstädt,Germany,DE,50.533329,10.68333
Ahlstädt,Germany,DE,50.533298,10.6833
Ahlten,Germany,DE,52.366692,9.90932
Ahmad Hossaīn pāra,Bangladesh,BD,22.25246,91.813812
Ahmadgarh,India,IN,28.25,78.116669
Ahmadnagar,India,IN,19.08333,74.73333
Ahmadpur East,Pakistan,PK,29.143089,71.259758
Ahmadpur Sial,Pakistan,PK,30.67539,71.748283
Ahmadpur,India,IN,23.83333,87.699997
Ahmadpur,India,IN,18.700001,76.933327
Ahmedabad,India,IN,23.033333,72.616669
Ahmetli,Turkey,TR,38.5196,27.93865
Ahmsen,Germany,DE,52.783329,7.63333
Ahndel,Germany,DE,54.38303,8.66152
Ahneby,Germany,DE,54.716671,9.73333
Ahneby,Germany,DE,54.716702,9.73333
Ahnsbeck,Germany,DE,52.616669,10.3
Ahnsbeck,Germany,DE,52.616699,10.3
Ahnsen,Germany,DE,52.254662,9.10089
Ahnsen,Germany,DE,52.256199,9.0967
Ahoada,Nigeria,NG,5.07395,6.65353
Ahoghill,United Kingdom,GB,54.866669,-6.36667
Aholfing,Germany,DE,48.950001,12.46667
Aholfing,Germany,DE,48.950001,12.4667
Aholming,Germany,DE,48.73333,12.91667
Aholming,Germany,DE,48.733299,12.9167
Ahome,Mexico,MX,25.91667,-109.183327
Ahorn,Germany,DE,50.23333,10.95
Ahorn,Germany,DE,50.224998,10.927
Ahoskie,New Caledonia,NC,36.286819,-76.98468
Ahraura,India,IN,25.01667,83.01667
Ahrbrück,Germany,DE,50.485149,6.97254
Ahrbrück,Germany,DE,50.484928,6.97151
Ahrdt,Germany,DE,50.700001,8.46667
Ahrendsee,Germany,DE,54.219429,13.14445
Ahrenfeld,Germany,DE,52.067001,9.64514
Ahrensberg,Germany,DE,53.259048,13.03373
Ahrensburg,Germany,DE,53.683331,10.25
Ahrensbök,Germany,DE,54.008621,10.57434
Ahrensbök,Germany,DE,54.016701,10.5833
Ahrensdorf,Germany,DE,52.166672,14.08333
Ahrensfelde,Germany,DE,52.576561,13.5797
Ahrensfelde,Germany,DE,52.583302,13.5833
Ahrenshöft,Germany,DE,54.549999,9.06667
Ahrenshöft,Germany,DE,54.549999,9.06667
Ahrenswohlde,Germany,DE,53.383331,9.46667
Ahrenviöl,Germany,DE,54.531311,9.20683
Ahrenviöl,Germany,DE,54.531311,9.20682
Ahrweiler,Germany,DE,50.549999,7.08333
Ahsen-Oetzen,Germany,DE,52.966671,9.08333
Ahtanum,Washington,WA,46.55957,-120.622009
Ahtopol,Bulgaria,BG,42.099998,27.950001
Ahuacapán,Mexico,MX,19.66667,-104.333328
Ahuacatlán,Mexico,MX,21.049999,-104.48333
Ahuachapán,El Salvador,SV,13.92139,-89.845001
Ahualulco de Mercado,Mexico,MX,20.70137,-103.974609
Ahualulco del Sonido Trece,Mexico,MX,22.4,-101.166672
Ahuatempan,Mexico,MX,18.41667,-98.01667
Ahuatepec,Mexico,MX,18.85,-97.900002
Ahuazotepec,Mexico,MX,20.049999,-98.150002
Ahuehuetzingo,Mexico,MX,18.680241,-99.308342
Ahuillé,France,FR,48.020859,-0.86906
Ahun,France,FR,46.085941,2.04479
Ahuy,France,FR,47.369438,5.02089
Ahvaz,Iran,IR,31.320299,48.6693
Ahvāz,Iran,IR,31.355301,48.7505
Ahwa,India,IN,20.75,73.683327
Ahwahnee,Canada,CA,37.365501,-119.726273
Ahwar,Yemen,YE,13.52019,46.713669
Ahırlı,Turkey,TR,37.238739,32.118809
Aia,Spain,ES,43.237209,-2.14833
Aia,Spain,ES,42.966068,-2.15512
Aia,Spain,ES,43.24511,-2.15243
Aianí,Greece,GR,40.166672,21.816669
Aiara / Ayala,Spain,ES,43.081619,-3.07509
Aiazatza,Spain,ES,43.130219,-2.93794
Aibar/Oibar,Spain,ES,42.593319,-1.35363
Aibetsu,Japan,JP,43.906551,142.577484
Aibga,Russia,RU,43.580002,40.189999
Aibl,Austria,AT,46.683331,15.21667
Aibl,Austria,AT,46.675789,15.1763
Aibonito,Puerto Rico,PR,18.139959,-66.265999
Aibonito,Puerto Rico,PR,18.139959,-66.265999
Aibura,Indonesia,ID,-8.667,122.331902
Aich,Austria,AT,47.416672,13.81667
Aich,Germany,DE,47.90052,12.19598
Aich,Austria,AT,47.438389,13.81773
Aicha vorm Wald,Germany,DE,48.683331,13.3
Aicha vorm Wald,Germany,DE,48.6833,13.3
Aichach,Germany,DE,48.45755,11.13413
Aichelberg,Germany,DE,48.635571,9.56373
Aichelberg,Germany,DE,48.635571,9.56317
Aichen,Germany,DE,48.23333,10.55
Aichen,Germany,DE,48.233299,10.55
Aicheng,China,CN,29.08816,115.761681
Aichhalden,Germany,DE,48.26667,8.41667
Aichhalden,Germany,DE,48.266701,8.41667
Aichi-ken,Japan,JP,35.180168,136.906555
Aichig,Germany,DE,49.933331,11.61667
Aichkirchen,Austria,AT,48.099998,13.78333
Aichkirchen,Austria,AT,48.114849,13.78109
Aichstetten,Germany,DE,47.892948,10.07837
Aichstetten,Germany,DE,47.897301,10.0565
Aicurzio,Italy,IT,45.63998,9.41495
Aidenbach,Germany,DE,48.566669,13.1
Aidenried,Germany,DE,47.950001,11.15
Aidhausen,Germany,DE,50.150002,10.43333
Aidhausen,Germany,DE,50.150002,10.4333
Aidlingen,Germany,DE,48.67849,8.89524
Aidlingen,Germany,DE,48.67849,8.89571
Aidomaggiore,Italy,IT,40.17075,8.85653
Aidone,Italy,IT,37.415451,14.44528
Aielli,Italy,IT,42.08083,13.5906
Aiello Calabro,Italy,IT,39.117592,16.166691
Aiello del Friuli,Italy,IT,45.87167,13.36556
Aiello del Sabato,Italy,IT,40.889118,14.82084
Aielo de Malferit,Spain,ES,38.883331,-0.58333
Aielo de Malferit,Spain,ES,38.8867,-0.60153
Aieta,Italy,IT,39.927799,15.82348
Aiffres,France,FR,46.294491,-0.42101
Aiffres,France,FR,46.283329,-0.41667
Aigen im Ennstal,Austria,AT,47.51667,14.13333
Aigen im Ennstal,Austria,AT,47.48632,14.18888
Aigle District,Switzerland,CH,46.305771,7.02974
Aigle,Switzerland,CH,46.3181,6.96457
Aigle,Switzerland,CH,46.315029,6.97246
Aiglemont,France,FR,49.780312,4.76483
Aiglsbach,Germany,DE,48.700001,11.71667
Aiglsbach,Germany,DE,48.700001,11.7167
Aigné,France,FR,48.064709,0.11908
Aigondigné,France,FR,46.299999,-0.28333
Aigre,France,FR,45.893768,0.00963
Aigrefeuille-sur-Maine,France,FR,47.07888,-1.40254
Aigua,Uruguay,UY,-34.200001,-54.75
Aiguafreda,Spain,ES,41.76807,2.25051
Aiguamúrcia,Spain,ES,41.333328,1.36667
Aiguaviva,Spain,ES,41.9384,2.76217
Aiguaviva,Spain,ES,41.932892,2.77505
Aigueblanche,France,FR,45.503132,6.50806
Aiguefonde,France,FR,43.493938,2.31686
Aigueperse,France,FR,46.022839,3.20231
Aigues-Mortes,France,FR,43.56683,4.19068
Aigues-Mortes,France,FR,43.569759,4.18708
Aigues-Vives,France,FR,43.7379,4.18066
Aiguillon,France,FR,44.298931,0.3402
Aiguillon,France,FR,44.299999,0.35
Aigurande,France,FR,46.433979,1.83026
Aigáleo,Greece,GR,37.98333,23.683331
Aigínio,Greece,GR,40.501389,22.540001
Aigües,Spain,ES,38.5,-0.35
Aigües,Spain,ES,38.509178,-0.36232
Aihua,China,CN,24.41667,100.099998
Aijia,China,CN,30.62359,111.346138
Aiken County,Seychelles,SC,33.583481,-81.599831
Aiken,Seychelles,SC,33.560421,-81.719551
Aikmel,Indonesia,ID,-8.5678,116.530502
Ailano,Italy,IT,41.390419,14.20502
Ailertchen,Germany,DE,50.599998,7.93333
Ailertchen,Germany,DE,50.599998,7.93333
Aileu,Timor-Leste,TL,-8.72806,125.566391
Ailigandí,Panama,PA,9.23333,-78.01667
Aillant-sur-Tholon,France,FR,47.87426,3.35049
Aillas,France,FR,44.474079,-0.07338
Aillas,France,FR,44.466671,-0.06667
Aillevillers-et-Lyaumont,France,FR,47.92033,6.33775
Ailly-sur-Noye,France,FR,49.757069,2.36367
Ailly-sur-Somme,France,FR,49.92886,2.19615
Ailoche,Italy,IT,45.69857,8.22102
Ailuk,Marshall Islands,MH,10.21972,169.979675
Aimargues,France,FR,43.684479,4.20999
Aime,France,FR,45.555592,6.65042
Aimere,Indonesia,ID,-8.8431,120.857903
Aimin,China,CN,30.64748,118.617241
Aimin,China,CN,29.44091,115.541641
Aimogasta,Argentina,AR,-28.5609,-66.805878
Aimorés,Brazil,BR,-19.495831,-41.063889
Ain Ebel,Lebanon,LB,33.110229,35.402512
Ain Sukhna,Egypt,EG,29.60018,32.316711
Ain,France,FR,46.166672,5.33333
Ainaloa,Hawaii,HI,19.526939,-154.993057
Ainaro,Timor-Leste,TL,-8.99241,125.508163
Ainay-le-Château,France,FR,46.711418,2.69245
Ainay-le-Château,France,FR,46.716671,2.7
Ainaži,Latvia,LV,57.863609,24.35778
Aindling,Germany,DE,48.51667,10.95
Ainet,Austria,AT,46.866112,12.70139
Ainet,Austria,AT,46.897831,12.69985
Aingoulaincourt,France,FR,48.45541,5.28674
Aingoulaincourt,France,FR,48.450001,5.28333
Ainharp,France,FR,43.260601,-0.93065
Ainharp,France,FR,43.26667,-0.93333
Ainhoa,France,FR,43.299999,-1.5
Ainhoa,France,FR,43.299999,-1.5
Ainkhausen,Germany,DE,51.400002,7.93333
Ainring,Germany,DE,47.816669,12.95
Ainring,Germany,DE,47.805401,12.9567
Ainsworth,Niger,NE,42.549999,-99.862617
Ainzón,Spain,ES,41.816441,-1.51995
Ainzón,Spain,ES,41.7887,-1.52377
Aioi,Japan,JP,34.803612,134.468063
Aioun,Mauritania,MR,16.6614,-9.6149
Aipe,Colombia,CO,3.22222,-75.236671
Aipetu,Indonesia,ID,-8.7953,121.976501
Aipetu,Indonesia,ID,-8.7953,121.976501
Aipi,China,CN,23.228201,114.638443
Aiquile,Bolivia,BO,-18.204081,-65.180679
Air Base Acres,Wyoming,WY,42.882191,-106.441139
Air City,NewYork,NY,43.22007,-75.422401
Air Force Academy,Colombia,CO,38.994251,-104.863747
Airaines,France,FR,49.968262,1.94266
Airan,France,FR,49.100979,-0.15203
Airasca,Italy,IT,44.917042,7.48432
Airbuaya,Indonesia,ID,-3.08635,126.434563
Airdrie,United Kingdom,GB,55.86602,-3.98025
Airdrie,Canada,CA,51.30011,-114.035278
Aire-la-Ville,Switzerland,CH,46.190571,6.04287
Aire-la-Ville,Switzerland,CH,46.19022,6.04226
Aire-sur-l'Adour,France,FR,43.701759,-0.2645
Aire-sur-l'Adour,France,FR,43.700001,-0.26667
Aire-sur-la-Lys,France,FR,50.63871,2.39876
Airel,France,FR,49.218719,-1.07889
Airel,France,FR,49.216671,-1.08333
Aireys Inlet,Australia,AU,-38.466671,144.100006
Airlie Beach,Australia,AU,-20.2675,148.716904
Airmont,NewYork,NY,41.100929,-74.116249
Airmyn,United Kingdom,GB,53.720741,-0.89959
Airola,Italy,IT,41.06102,14.55843
Airole,Italy,IT,43.870918,7.55414
Airoli,India,IN,19.150961,72.996246
Airport Drive,Macao,MO,37.142559,-94.51078
Airport Mobile Home Park,Lao People's Democratic Republic,LA,30.23802,-92.675041
Airport Pisa,Italy,IT,43.698292,10.39955
Airport Plaza,Tunisia,TN,35.817581,-83.978523
Airport Road,Wyoming,WY,43.99329,-107.949257
Airport Subdivision,Gabon,GA,31.519621,-84.204071
Airport Village,Argentina,AR,35.637859,-91.195129
Airport,Nepal,NP,26.484381,87.27092
Airstream,Texas,TX,29.8654,-95.183701
Airsuning,Indonesia,ID,-8.6508,116.854698
Airth,United Kingdom,GB,56.06834,-3.76993
Airuk,Marshall Islands,MH,7.27717,168.820297
Airuno,Italy,IT,45.75388,9.42425
Airvault,France,FR,46.825329,-0.13634
Airway Heights,Washington,WA,47.644611,-117.593269
Airães,Portugal,PT,41.316769,-8.20031
Airães,Portugal,PT,41.31897,-8.19726
Aisa,Spain,ES,42.719219,-0.58998
Aisai,Japan,JP,35.163502,136.732224
Aiseau,Belgium,BE,50.411579,4.58671
Aiseau-Presles,Belgium,BE,50.408298,4.58104
Aiserey,France,FR,47.172291,5.1626
Aislingen,Germany,DE,48.506481,10.45778
Aisne,France,FR,49.5,3.5
Aisone,Italy,IT,44.313919,7.21963
Aistala,India,IN,23.18,88.580002
Aisémont,Belgium,BE,50.716671,4.61667
Aita Mare,Romania,RO,45.966671,25.549999
Aitape,Papua New Guinea,PG,-3.13744,142.347504
Aiterbach,Germany,DE,48.450001,11.6
Aitern,Germany,DE,47.799999,7.9
Aitern,Germany,DE,47.799999,7.9
Aitkenvale,Australia,AU,-19.283331,146.800003
Aitkin County,Mongolia,MN,46.599949,-93.416901
Aitkin,Mongolia,MN,46.533009,-93.710251
Aitolikó,Greece,GR,38.433331,21.35
Aiton,France,FR,45.560478,6.26053
Aiton,Romania,RO,46.683331,23.73333
Aitona,Spain,ES,41.48333,0.46667
Aitrach,Germany,DE,47.933331,10.08333
Aitrach,Germany,DE,47.9333,10.0833
Aitrang,Germany,DE,47.816669,10.53333
Aitrang,Germany,DE,47.8167,10.5333
Aiud,Romania,RO,46.299999,23.716669
Aiuruoca,Brazil,BR,-21.975559,-44.603062
Aiuá,Brazil,BR,-3.44889,-40.473888
Aix-Noulette,France,FR,50.425678,2.70554
Aix-en-Othe,France,FR,48.223911,3.73425
Aix-en-Provence,France,FR,43.528301,5.44973
Aix-en-Provence,France,FR,43.533329,5.43333
Aix-les-Bains,France,FR,45.68338,5.92241
Aix-les-Bains,France,FR,45.688499,5.9156
Aix-sur-Cloix,Belgium,BE,49.57616,5.78122
Aixe-sur-Vienne,France,FR,45.798618,1.13884
Aizarna,Spain,ES,43.23447,-2.22613
Aizarnazabal,Spain,ES,43.255909,-2.23607
Aizarnazabal,Spain,ES,43.265411,-2.23283
Aizawl,India,IN,23.73333,92.716667
Aizenay,France,FR,46.74004,-1.60834
Aizi,China,CN,24.631941,113.980003
Aizkraukle,Latvia,LV,56.604771,25.255341
Aizkraukles novads,Latvia,LV,56.5,25.16667
Aizoáin,Spain,ES,42.849998,-1.63333
Aizpute,Latvia,LV,56.716671,21.6
Aizputes Novads,Latvia,LV,56.716671,21.56889
Aiánteio,Greece,GR,37.922779,23.466129
Ajaccio,France,FR,41.927231,8.73462
Ajaccio,France,FR,41.916672,8.73333
Ajacuba,Mexico,MX,20.0875,-99.112503
Ajaigarh,India,IN,24.9,80.26667
Ajain,France,FR,46.206348,1.9985
Ajak,Hungary,HU,48.17664,22.062731
Ajalpan,Mexico,MX,18.366671,-97.25
Ajalvir,Spain,ES,40.532051,-3.47841
Ajalvir,Spain,ES,40.529091,-3.47658
Ajamil de Cameros,Spain,ES,42.163952,-2.43759
Ajamil,Spain,ES,42.167061,-2.48752
Ajaokuta,Nigeria,NG,7.56229,6.65497
Ajaria,Georgia,GE,41.666672,42
Ajasse Ipo,Nigeria,NG,8.23333,4.81667
Ajax,Sudan,SD,43.897491,-103.181847
Ajax,Canada,CA,43.850121,-79.032883
Ajdabiya,Libya,LY,30.755449,20.226259
Ajdemir,Bulgaria,BG,44.099998,27.16667
Ajdir,Morocco,MA,34.743469,-3.97582
Ajdovščina,Slovenia,SI,45.886009,13.90946
Ajibo,Nigeria,NG,7.46667,4.28333
Ajigasawa,Japan,JP,40.774441,140.203064
Ajijic,Mexico,MX,20.299999,-103.283333
Ajjampur,India,IN,13.72806,76.009438
Ajka,Hungary,HU,47.101959,17.55892
Ajkai Tanyák,Hungary,HU,47.099998,17.566669
Ajloun,Jordan,JO,32.330448,35.747841
Ajman City,United Arab Emirates,AE,25.41111,55.43504
Ajmer,India,IN,26.450001,74.633331
Ajnāla,India,IN,31.842501,74.758888
Ajo,Spain,ES,43.478512,-3.61203
Ajo,Azerbaijan,AZ,32.371719,-112.86071
Ajodhya,India,IN,26.799999,82.199997
Ajofrín,Spain,ES,39.71088,-3.9822
Ajofrín,Spain,ES,39.72871,-3.98381
Ajoncourt,France,FR,48.844528,6.28863
Ajoncourt,France,FR,48.849998,6.3
Ajra,India,IN,16.116671,74.199997
Ajuchitlán del Progreso,Mexico,MX,18.15189,-100.483528
Ajuchitlán,Mexico,MX,20.716669,-100.01667
Ajung,Indonesia,ID,-8.2059,113.655998
Ajung,Indonesia,ID,-8.1335,113.820702
Ajuricaba,Brazil,BR,-28.239441,-53.770828
Ajuterique,Honduras,HN,14.38333,-87.699997
Ajuy,Philippines,PH,11.1724,123.019699
Ají,Venezuela,VE,5.783333,-61.450001
Ajā,Egypt,EG,30.94154,31.29151
Ajāpura,India,IN,25.616671,76.666672
Ak-Chiy,Kyrgyzstan,KG,41.22546,74.844009
Ak-Dovurak,Russia,RU,51.183331,90.599998
Ak-Shor,Kyrgyzstan,KG,40.44574,72.209633
Ak-Suu,Kyrgyzstan,KG,42.499481,78.527023
Ak-Sëok,Kyrgyzstan,KG,43.01667,74.166672
Akaa,Finland,FI,61.16667,23.86667
Akaa,Finland,FI,61.16738,23.86582
Akabira,Japan,JP,43.551392,142.053055
Akabli,Algeria,DZ,26.708281,1.37528
Akademgorodok,Russia,RU,54.852299,83.106003
Akademicheskiy,Russia,RU,57.711102,34.31638
Akaigawa,Japan,JP,43.083328,140.817215
Akalkot,India,IN,17.533331,76.216667
Akaltara,India,IN,22.01667,82.433327
Akana,Russia,RU,63.900002,119.01667
Akankpa,Nigeria,NG,5.1264,8.1898
Akanuma,Japan,JP,37.366669,140.433334
Akarakar,Indonesia,ID,-8.2214,116.342796
Akarsu,Turkey,TR,37.235489,41.06068
Akashi,Japan,JP,34.633331,134.983337
Akashichō,Japan,JP,35.666672,139.783325
Akasztó,Hungary,HU,46.691669,19.204229
Akat Amnuai,Thailand,TH,17.59639,103.981598
Akatovo,Russia,RU,55.759998,37.950001
Akbarpur,India,IN,26.41667,82.550003
Akbarpur,India,IN,26.383329,79.949997
Akbarābād,Iran,IR,29.246401,52.779301
Akbarābād,Iran,IR,29.084021,58.416851
Akbou,Algeria,DZ,36.4575,4.53494
Akbulak,Russia,RU,51.001999,55.617439
Akdağmadeni,Turkey,TR,39.660278,35.88361
Akdepe,Turkmenistan,TM,42.05513,59.378769
Akdiken,Turkey,TR,36.724998,39.308609
Ake-Eze,Nigeria,NG,5.91677,7.67615
Aken,Germany,DE,51.849998,12.05
Akerregi,Spain,ES,43.268429,-1.96331
Akershus fylke,Norway,NO,60,11.16667
Aketi,Congo,CD,2.73877,23.78326
Akhaldaba,Georgia,GE,41.65395,42.15163
Akhalgori,Georgia,GE,42.125969,44.48333
Akhali-Gagra,Georgia,GE,43.287777,40.268612
Akhalk’alak’i,Georgia,GE,41.40514,43.48629
Akhaltsikhe,Georgia,GE,41.639011,42.98262
Akhiok,Alaska,AK,56.94556,-154.170273
Akhisar,Turkey,TR,38.918522,27.840059
Akhmatovo,Russia,RU,54.91,41.529999
Akhmet’a,Georgia,GE,42.031109,45.2075
Akhmīm,Egypt,EG,26.56217,31.745029
Akhnūr,India,IN,32.866669,74.73333
Akhonvaara,Russia,RU,65.709999,30.799999
Akhshtyr’,Russia,RU,43.509998,40
Akhtanizovskaya,Russia,RU,45.32,37.099998
Akhtarīn,Syrian Arab Republic,SY,36.512329,37.335789
Akhtopol,Bulgaria,BG,42.099998,27.950001
Akhtuba,Russia,RU,51.6101,44.38105
Akhtubinsk,Russia,RU,48.279549,46.172169
Akhty,Russia,RU,41.459679,47.731232
Akhtyrskiy,Russia,RU,44.854599,38.303101
Akht’ala,Armenia,AM,41.168381,44.75811
Akhunovo,Russia,RU,54.207901,59.6017
Akhuryan,Armenia,AM,40.780029,43.900269
Aki,Japan,JP,33.5,133.899994
Akikat,Ukraine,UA,44.916668,35.066666
Akikawa,Japan,JP,35.728779,139.294144
Akil Iomak,Pakistan,PK,25.849722,63.400833
Akil,Mexico,MX,20.25,-89.349998
Akim Oda,Ghana,GH,5.92313,-0.99507
Akim Swedru,Ghana,GH,5.8938,-1.01636
Akina,New Zealand,NZ,-39.648239,176.84021
Akishino,Russia,RU,56,37
Akis’,Russia,RU,65.8386,56.75631
Akita Shi,Japan,JP,39.71806,140.103333
Akita,Japan,JP,39.75251,140.40538
Akita,Japan,JP,39.716671,140.116669
Akivīdu,India,IN,16.6,81.383331
Akjoujt,Mauritania,MR,19.696939,-14.41639
Akkarampalle,India,IN,13.65,79.419998
Akkaya,Turkey,TR,41.228161,33.471169
Akkemer,Kazakhstan,KZ,49.657501,57.34
Akkeshi,Japan,JP,43.035561,144.852493
Akko,Nigeria,NG,10.28899,10.9732
Akkol,Kazakhstan,KZ,51.99778,70.934174
Akkol’,Kazakhstan,KZ,53.2925,69.601112
Akkol’,Kazakhstan,KZ,48.783329,53.200001
Akkrum,Netherlands,NL,53.05024,5.83087
Akkuş,Turkey,TR,40.79306,37.016392
Akkystau,Kazakhstan,KZ,47.23333,51
Akköy,Turkey,TR,37.95694,29.07814
Akkışla,Turkey,TR,39.00222,36.173809
Aklavik,Canada,CA,68.219131,-135.010712
Akle,Philippines,PH,15.0482,121.073303
Aklera,India,IN,24.41667,76.566673
Aklim,Morocco,MA,34.919998,-2.43
Akliniai,Lithuania,LT,55.883331,23.383329
Akmenė,Lithuania,LT,56.25,22.75
Akmezar,Turkey,TR,38.462059,34.310989
Aknada,Russia,RU,42.40155,46.172279
Aknalich,Armenia,AM,40.14315,44.149799
Aknashen,Armenia,AM,40.095509,44.286041
Akner,Armenia,AM,39.534908,46.30732
Aknoul,Morocco,MA,34.653709,-3.86754
Aknīste,Latvia,LV,56.161518,25.747829
Akoa,Spain,ES,43.23241,-2.24449
Akodia,India,IN,23.383329,76.599998
Akola,India,IN,20.73333,77
Akolea Plantation Estates,Hawaii,HI,19.703329,-155.134445
Akom II,Cameroon,CM,2.78333,10.56667
Akono,Cameroon,CM,3.5,11.33333
Akonolinga,Cameroon,CM,3.76667,12.25
Akora,Pakistan,PK,34.003609,72.126106
Akot,India,IN,21.09639,77.058609
Akouda,Tunisia,TN,35.869099,10.5653
Akoupé,Ivory Coast,CI,6.39,-3.90028
Akpınar,Turkey,TR,39.45005,33.96484
Akpınar,Turkey,TR,41.511799,32.073261
Akraifnía,Greece,GR,38.450001,23.216669
Akranes,Iceland,IS,64.321793,-22.0749
Akriní,Greece,GR,40.433331,21.9
Akrolímni,Greece,GR,40.679169,22.263889
Akron,Kansas,KS,37.351688,-97.015038
Akron,Iowa,IA,42.82888,-96.559479
Akron,India,IN,41.03838,-86.028053
Akron,NewYork,NY,43.020889,-78.4953
Akron,Ohio,OH,41.08144,-81.519012
Akron,Panama,PA,40.156761,-76.202171
Akron,Colombia,CO,40.160542,-103.214378
Akropong,Ghana,GH,5.97462,-0.08542
Akrotiri,United Kingdom,GB,34.604172,32.958328
Akráta,Greece,GR,38.150002,22.316669
Aksakovo,Russia,RU,56.066666,42.450001
Aksakovo,Russia,RU,54.033329,54.150002
Aksakovo,Bulgaria,BG,43.25,27.816669
Aksaray,Turkey,TR,38.372551,34.025372
Aksaray,Turkey,TR,38.5,33.833328
Aksarayskiy,Russia,RU,46.792439,48.011879
Aksarka,Russia,RU,66.560562,67.797501
Aksay,Russia,RU,47.259998,39.869999
Aksay,Russia,RU,43.37254,46.444969
Aksay,Kazakhstan,KZ,50.683334,52.433334
Aksdal,Norway,NO,59.42408,5.44553
Akseki,Turkey,TR,37.048611,31.790001
Aksel,Russia,RU,54.598309,43.419769
Aksengir,Kazakhstan,KZ,43.353333,76.826111
Aksengir,Kazakhstan,KZ,43.359165,76.760002
Aksha,Russia,RU,50.281391,113.286667
Aksin’ino,Russia,RU,55.73,36.98
Aksu,Kazakhstan,KZ,52.033329,76.916672
Aksu,Kazakhstan,KZ,52.458611,71.985832
Aksu,China,CN,41.123058,80.264442
Aksu,Turkey,TR,37.533329,36.916672
Aksu,Turkey,TR,37.798889,31.07111
Aksu,Turkey,TR,40.089481,38.035229
Aksu-Ayuly,Kazakhstan,KZ,48.766392,73.672218
Aksuat,Kazakhstan,KZ,48.716671,83.699997
Aksuat,Kazakhstan,KZ,49.605831,48.94278
Aksënovo,Russia,RU,56.110001,38.43
Aksënovo,Russia,RU,55.669998,38.240002
Aksënovo,Russia,RU,56.041901,36.226002
Aktanysh,Russia,RU,55.721561,54.08292
Aktanyshskiy Rayon,Russia,RU,55.75,53.833328
Aktas,Kazakhstan,KZ,49.778889,72.960831
Aktash,Russia,RU,50.299999,87.73333
Aktasty,Kazakhstan,KZ,50.74778,72.205833
Aktau,Kazakhstan,KZ,50.236671,73.062782
Aktau,Kazakhstan,KZ,48.033329,72.833328
Aktau,Kazakhstan,KZ,43.650002,51.200001
Aktepa,Uzbekistan,UZ,41.305,69.207779
Aktobe,Kazakhstan,KZ,43.466671,70.400002
Aktobe,Kazakhstan,KZ,50.27969,57.20718
Aktogay,Kazakhstan,KZ,48.166672,75.300003
Aktsyabrski,Belarus,BY,52.644001,28.8801
Aktuba,Russia,RU,54.814999,52.775299
Aktyubinskaya Oblast’,Kazakhstan,KZ,48,58
Aktyubinskiy,Russia,RU,54.813721,52.805592
Aku,Nigeria,NG,6.7081,7.3167
Akuchi,Japan,JP,35.01667,133.633331
Akui,Georgia,GE,43.100834,40.829166
Akulino,Russia,RU,55.299999,37.73
Akulivik,Canada,CA,60.80056,-78.199348
Akulovo,Russia,RU,56,37.799999
Akulovo,Russia,RU,55.509998,36.68
Akulovo,Russia,RU,54.965263,37.308895
Akumal,Mexico,MX,20.396931,-87.314438
Akune,Japan,JP,32.01667,130.199997
Akunk’,Armenia,AM,40.268829,44.684811
Akunk’,Armenia,AM,40.158859,45.725681
Akupu,Hawaii,HI,21.394171,-158.103058
Akure,Nigeria,NG,7.25256,5.19312
Akureyri,Iceland,IS,65.683533,-18.087799
Akusha,Russia,RU,42.268848,47.341141
Akutan,Alaska,AK,54.135559,-165.773056
Akwa Ibom State,Nigeria,NG,5,7.83333
Akwa,Cameroon,CM,4.05,9.7
Akwanga,Nigeria,NG,8.91667,8.38333
Akwatia,Ghana,GH,6.04024,-0.80876
Akwechi,Ghana,GH,5.55,-0.58333
Akyaka,Turkey,TR,40.73645,43.626652
Akyazı,Turkey,TR,40.685001,30.622219
Akyurt,Turkey,TR,40.13512,33.08614
Akáki,Cyprus,CY,35.133331,33.129169
Akçaabat,Turkey,TR,41.021198,39.571461
Akçadağ,Turkey,TR,38.34528,37.96722
Akçakale,Turkey,TR,36.711109,38.947498
Akçakent,Turkey,TR,39.62278,34.095829
Akçakoca,Turkey,TR,41.086632,31.11623
Akören,Turkey,TR,37.453449,32.370701
Akālgarh,India,IN,29.816669,75.883331
Akıncılar,Turkey,TR,40.07972,38.348061
Akşehir,Turkey,TR,38.357498,31.416389
Ak’ordat,Eritrea,ER,15.54861,37.886669
Ak”yar,Russia,RU,51.859051,58.221359
Al  Hawtah,Yemen,YE,13.0624,44.881599
Al Aaroui,Morocco,MA,35.011848,-3.00453
Al Abr,Yemen,YE,16.133329,47.23333
Al Abyār,Libya,LY,32.189999,20.596531
Al Aflāj,Oman,OM,22.383881,58.213249
Al Ahad,Yemen,YE,14.25833,43.64167
Al Ain City,United Arab Emirates,AE,24.191669,55.760559
Al Amal (Nimrah Thamāniyah),Egypt,EG,28.1054,30.603649
Al Amud,Yemen,YE,14.72103,45.20676
Al Amān,United Arab Emirates,AE,24.432261,54.423531
Al Anan,Yemen,YE,16.72188,44.312519
Al Aqabah,Yemen,YE,14.27179,44.786991
Al Aqir,Yemen,YE,14.56816,45.91156
Al Aqta,Yemen,YE,14.66217,45.351231
Al Arţāwīyah,Saudi Arabia,SA,26.50526,45.344372
Al Ashshah,Yemen,YE,16.256519,43.854759
Al Asimah Governorate,Kuwait,KW,29.33333,47.916672
Al Awabil,Yemen,YE,13.83754,44.864311
Al Awjām,Saudi Arabia,SA,26.56324,49.94331
Al Ayn,Yemen,YE,13.33005,44.092079
Al Aḩmadī,Kuwait,KW,29.076941,48.083889
Al Badārī,Egypt,EG,26.992571,31.415541
Al Bahah,Saudi Arabia,SA,20.01288,41.46767
Al Balyanā,Egypt,EG,26.23568,32.003471
Al Bardīyah,Libya,LY,31.756149,25.086531
Al Barjisīyah,Iraq,IQ,30.35,47.566669
Al Batinah South Governorate,Oman,OM,23.75,57
Al Batinah,Yemen,YE,15.48333,48.433331
Al Bawīţī,Egypt,EG,28.34919,28.86591
Al Bayda City,Yemen,YE,13.9849,45.556599
Al Bayda,Yemen,YE,13.98523,45.57272
Al Bayḑā’,Libya,LY,32.762718,21.75506
Al Başrah al Qadīmah,Iraq,IQ,30.49721,47.814911
Al Baţţālīyah,Saudi Arabia,SA,25.433331,49.633331
Al Bida‘,Kuwait,KW,29.3025,48.086941
Al Bilad,Yemen,YE,16.13806,49.291672
Al Bukayrīyah,Saudi Arabia,SA,26.14422,43.659328
Al Buq‘ah,Palestinian Territory,PS,31.54199,35.142792
Al Burayj,Palestinian Territory,PS,31.43944,34.403061
Al Buraymī,Oman,OM,24.250879,55.793121
Al Burayqah,Libya,LY,30.40624,19.57386
Al Burj,Palestinian Territory,PS,31.43609,34.916969
Al Buşayrah,Syrian Arab Republic,SY,35.15538,40.42609
Al Buşur,Saudi Arabia,SA,26.285299,43.869732
Al Buţayḩah,Syrian Arab Republic,SY,32.903999,35.641319
Al Buţnān,Libya,LY,30.23333,24.16667
Al Bāb,Syrian Arab Republic,SY,36.369942,37.517879
Al Bādhān,Palestinian Territory,PS,32.258572,35.33247
Al Bājūr,Egypt,EG,30.43026,31.03681
Al Bāshūrah,Syrian Arab Republic,SY,35.132679,36.75108
Al Bīrah,Palestinian Territory,PS,31.907209,35.220612
Al Fallūjah,Iraq,IQ,33.353802,43.77951
Al Falāḩīyah,Iraq,IQ,32.508221,45.841068
Al Fandaqūmīyah,Palestinian Territory,PS,32.320599,35.203289
Al Farwānīyah,Kuwait,KW,29.2775,47.958611
Al Farāfirah,Syrian Arab Republic,SY,36.202221,37.1595
Al Fashn,Egypt,EG,28.82431,30.899481
Al Fayd,Morocco,MA,30.61496,-8.21466
Al Fayyūm,Egypt,EG,29.30995,30.841801
Al Fayşalīyah,Saudi Arabia,SA,24.64348,46.776981
Al Faşāyil,Palestinian Territory,PS,32.025089,35.443508
Al Faḩāḩīl,Kuwait,KW,29.0825,48.13028
Al Finţās,Kuwait,KW,29.173889,48.121109
Al Fqih Ben Çalah,Morocco,MA,32.500931,-6.69062
Al Fujairah City,United Arab Emirates,AE,25.116409,56.341412
Al Fujayr,Yemen,YE,15.96667,48.799999
Al Fujayrah,United Arab Emirates,AE,25.133329,56.25
Al Fukhkhārī,Palestinian Territory,PS,31.29278,34.330608
Al Funayţīs,Kuwait,KW,29.225281,48.101669
Al Fuqahā’,Libya,LY,27.833731,16.38492
Al Furqlus,Syrian Arab Republic,SY,34.60638,37.087448
Al Fuwayliq,Saudi Arabia,SA,26.44322,43.253399
Al Fāw,Iraq,IQ,29.977631,48.474121
Al Fāḑilī,Saudi Arabia,SA,26.98016,49.174511
Al Fūlah,Sudan,SD,11.73292,28.357861
Al Ghayl,Yemen,YE,16.10774,44.68005
Al Ghaylah,Yemen,YE,14.59583,45.583328
Al Ghayzah,Yemen,YE,16.20787,52.176048
Al Ghaţghaţ,Saudi Arabia,SA,24.47649,46.249908
Al Ghizlānīyah,Syrian Arab Republic,SY,33.397099,36.456169
Al Ghuwair,United Arab Emirates,AE,25.35985,55.391911
Al Ghuwayrīyah,Qatar,QA,25.82972,51.245281
Al Habilayn,Yemen,YE,13.52002,44.850761
Al Hadiyah,Yemen,YE,14.52638,43.57045
Al Hadā,Saudi Arabia,SA,21.367531,40.286942
Al Hajab,Yemen,YE,14.85192,45.529041
Al Hamdi,Yemen,YE,15.94727,48.779652
Al Harajah,Yemen,YE,15.48818,44.665352
Al Harf,Yemen,YE,16.363951,44.094212
Al Hasaheisa,Sudan,SD,14.75264,33.298359
Al Hashwah,Yemen,YE,16.90641,44.276218
Al Hawak,Yemen,YE,14.7601,42.997799
Al Hayfah,Yemen,YE,15.73494,44.237881
Al Hazm,Yemen,YE,14.68919,45.609619
Al Hazm,Yemen,YE,16.164061,44.77692
Al Haïmriyine,Morocco,MA,34.169998,-6.01
Al Hijrah,Yemen,YE,17.29788,43.38718
Al Hilāliyya,Sudan,SD,14.9398,33.234001
Al Hindīyah,Iraq,IQ,32.543331,44.2225
Al Hoceïma,Morocco,MA,35.243328,-3.93092
Al Hudaydah,Yemen,YE,14.79781,42.954521
Al Hufūf,Saudi Arabia,SA,25.364571,49.565319
Al Humaydat,Yemen,YE,16.485661,44.430279
Al Husayn,Yemen,YE,13.79199,44.76886
Al Hārithah,Iraq,IQ,30.718611,47.720829
Al Hāshimīyah,Palestinian Territory,PS,32.463921,35.219379
Al Ibrāhīmīyah,Egypt,EG,30.718769,31.56299
Al Imām,Iraq,IQ,32.666672,44.583328
Al Ittiḩād,Palestinian Territory,PS,31.975519,35.115952
Al Jabal al Akhḑar,Libya,LY,32.200001,21.75
Al Jabin,Yemen,YE,14.70401,43.599041
Al Jadīd,Libya,LY,27.049999,14.4
Al Jafr,Saudi Arabia,SA,25.37694,49.72361
Al Jafr,Jordan,JO,30.294559,36.212151
Al Jaghbūb,Libya,LY,29.74262,24.51676
Al Jahrā’,Kuwait,KW,29.3375,47.658058
Al Jalamah,Palestinian Territory,PS,32.508209,35.313171
Al Jamimah,Yemen,YE,16.01787,43.59647
Al Jammālīyah,Egypt,EG,31.180861,31.865179
Al Janādilah,Egypt,EG,29.066669,31.08333
Al Jarrahi,Yemen,YE,14.13254,43.388451
Al Jarādīyah,Saudi Arabia,SA,16.57946,42.912399
Al Jawf,Saudi Arabia,SA,29.5,38.75
Al Jawf,Libya,LY,24.1989,23.29093
Al Jawl,Yemen,YE,14.45625,48.280659
Al Jawādīyah,Syrian Arab Republic,SY,36.986408,41.82021
Al Jazirah State,Sudan,SD,14.6,33.349998
Al Jaḩr,United Arab Emirates,AE,24.25,55.583328
Al Jiftlik,Palestinian Territory,PS,32.140701,35.487381
Al Jisrah,Qatar,QA,25.28611,51.534168
Al Jubayhah,Jordan,JO,32.02581,35.864578
Al Jubayl,Saudi Arabia,SA,27.011221,49.65826
Al Jubayl,Saudi Arabia,SA,25.4,49.650002
Al Jubayl,Egypt,EG,28.1984,33.631371
Al Judayrah,Palestinian Territory,PS,31.855869,35.19706
Al Judayyidah,Palestinian Territory,PS,32.335411,35.301079
Al Jufrah,Libya,LY,28,17.41667
Al Jumah,Yemen,YE,14.73779,43.96489
Al Jumaylīyah,Qatar,QA,25.60944,51.09222
Al Jumūm,Saudi Arabia,SA,21.61694,39.698059
Al Jurbah,Yemen,YE,13.7915,45.158939
Al Jāniyah,Palestinian Territory,PS,31.93848,35.121422
Al Jīb,Palestinian Territory,PS,31.85203,35.184509
Al Jīzah,Jordan,JO,31.69968,35.957211
Al Karak,Jordan,JO,31.16667,35.75
Al Karmil,Palestinian Territory,PS,31.42301,35.132778
Al Karāmah,Jordan,JO,31.952221,35.57917
Al Kawa,Sudan,SD,13.7463,32.499599
Al Khafjī,Saudi Arabia,SA,28.439051,48.491322
Al Khafsah,Syrian Arab Republic,SY,36.231098,38.021721
Al Khamis,Yemen,YE,15.18533,43.511219
Al Khaniq,Yemen,YE,15.50253,44.18158
Al Kharab,Yemen,YE,16.991289,43.338879
Al Kharj,Saudi Arabia,SA,24.15502,47.334599
Al Khasamah,Yemen,YE,15.32345,44.102188
Al Khawkhah,Yemen,YE,13.8071,43.249298
Al Khawr,Qatar,QA,25.683889,51.505829
Al Khaḑir,Palestinian Territory,PS,31.69405,35.166851
Al Khinzīrah,Jordan,JO,31.056721,35.601681
Al Khirab,Yemen,YE,16.554399,44.290482
Al Khums,Libya,LY,32.648609,14.26191
Al Khushnīyah,Syrian Arab Republic,SY,32.999409,35.810841
Al Khābūrah,Oman,OM,23.98864,57.098381
Al Khālidīyah,Saudi Arabia,SA,24.622219,46.759441
Al Khānkah,Egypt,EG,30.21035,31.36812
Al Khārijah,Egypt,EG,25.451401,30.54635
Al Kiremit al ‘Arakiyyīn,Sudan,SD,14.3476,32.943699
Al Kiswah,Syrian Arab Republic,SY,33.357201,36.242779
Al Kittah,Jordan,JO,32.276852,35.841141
Al Kodab,Sudan,SD,16.23333,32.604172
Al Kufrah,Libya,LY,24.16667,23.269621
Al Kūt,Iraq,IQ,32.514702,45.819019
Al Lagowa,Sudan,SD,11.4,29.133329
Al Lubban al Gharbī,Palestinian Territory,PS,32.035042,35.03928
Al Lubban ash Sharqīyah,Palestinian Territory,PS,32.07011,35.240299
Al Luhayyah,Yemen,YE,15.70309,42.690929
Al Maalla,Yemen,YE,12.78987,45.002441
Al Madan,Yemen,YE,16.224131,43.643829
Al Madid,Yemen,YE,15.64453,44.47337
Al Madīnah al Munawwarah,Saudi Arabia,SA,25.66667,39.666672
Al Mafraq,Jordan,JO,32.333328,37.916672
Al Mafud,Yemen,YE,15.34264,47.252171
Al Maghrabah,Yemen,YE,15.87722,43.666672
Al Mahabishah,Yemen,YE,15.94758,43.435871
Al Mahbūlah,Kuwait,KW,29.145,48.13028
Al Mahfad,Yemen,YE,13.9705,46.756001
Al Mahfid,Yemen,YE,14.05847,46.91328
Al Mahjal,Yemen,YE,16.711691,44.847691
Al Mahwit,Yemen,YE,15.47007,43.544811
Al Majd,Palestinian Territory,PS,31.48056,34.95108
Al Majāridah,Saudi Arabia,SA,19.12361,41.91111
Al Makdash,Yemen,YE,14.18333,46.650002
Al Makhadir,Yemen,YE,14.12224,44.19796
Al Malahit,Yemen,YE,16.76848,43.275822
Al Manqaf,Kuwait,KW,29.096109,48.132778
Al Manshāh,Egypt,EG,26.47686,31.803499
Al Mansurah,Yemen,YE,12.86019,44.981659
Al Mansuriyah,Yemen,YE,14.6856,43.299221
Al Manzalah,Egypt,EG,31.15815,31.937
Al Manāqil,Sudan,SD,14.2459,32.989101
Al Manşūrah,Egypt,EG,31.036369,31.38069
Al Marawiah,Yemen,YE,14.83069,43.153912
Al Marj,Libya,LY,32.48798,20.831739
Al Marj,Libya,LY,31.933331,21.316669
Al Markaz,Saudi Arabia,SA,25.4,49.73333
Al Marqab,Libya,LY,32.5,14
Al Marsá,Tunisia,TN,36.878181,10.32466
Al Masallamiyya,Sudan,SD,14.5748,33.337299
Al Mashaf,Yemen,YE,16.85836,43.197811
Al Mashannah,Yemen,YE,13.9573,44.169998
Al Maslub,Yemen,YE,16.182711,44.626129
Al Maslub,Yemen,YE,16.0961,44.5667
Al Matlīn,Tunisia,TN,37.245159,10.05
Al Matun,Yemen,YE,16.230631,44.584759
Al Maudah,Yemen,YE,14.21055,45.387321
Al Mawşil al Jadīdah,Iraq,IQ,36.334641,43.097771
Al Mayfaah,Yemen,YE,14.46392,44.54866
Al Mayādīn,Syrian Arab Republic,SY,35.020889,40.453461
Al Mazra‘ah ash Sharqīyah,Palestinian Territory,PS,32.000179,35.281521
Al Mazra‘ah,Syrian Arab Republic,SY,32.783981,36.476959
Al Mazār al Janūbī,Jordan,JO,31.065559,35.69611
Al Maţarīyah,Egypt,EG,31.182871,32.031078
Al Maḩallah al Kubrá,Egypt,EG,30.974501,31.164989
Al Midyah,Palestinian Territory,PS,31.935921,35.005001
Al Miftah,Yemen,YE,15.97431,43.46381
Al Mighlaf,Yemen,YE,15.2871,43.18914
Al Mijlad,Sudan,SD,11.03333,27.73333
Al Mikhlāf,Saudi Arabia,SA,17.53957,44.213501
Al Milah,Yemen,YE,13.42611,44.825562
Al Mina,Yemen,YE,14.8522,42.909901
Al Mindak,Saudi Arabia,SA,20.1588,41.283371
Al Minyā,Egypt,EG,28.10988,30.750299
Al Minţaqah ash Sharqīyah,Saudi Arabia,SA,22.5,51
Al Miqdādīyah,Iraq,IQ,33.978611,44.936939
Al Mishkhāb,Iraq,IQ,31.804159,44.49107
Al Misrakh,Yemen,YE,13.46059,44.020432
Al Mubarraz,Saudi Arabia,SA,25.41,49.58083
Al Mudawwarah,Saudi Arabia,SA,21.271589,39.962681
Al Mughayyir,Palestinian Territory,PS,32.422279,35.384762
Al Mughayyir,Palestinian Territory,PS,32.019199,35.347832
Al Mughrāqah,Palestinian Territory,PS,31.46587,34.412079
Al Muharraq,Bahrain,BH,26.257219,50.611938
Al Mujtahid,Syrian Arab Republic,SY,33.500599,36.297699
Al Mukalla City,Yemen,YE,14.5396,49.192902
Al Mukalla,Yemen,YE,14.54248,49.124241
Al Munayzilah,Saudi Arabia,SA,25.383329,49.666672
Al Munirah,Yemen,YE,15.32024,42.929359
Al Muqaţţarah,United Arab Emirates,AE,24.26762,54.561932
Al Musaymir,Yemen,YE,13.44389,44.61528
Al Musayyib,Iraq,IQ,32.783321,44.282509
Al Mushannaf,Syrian Arab Republic,SY,32.739319,36.774731
Al Muwayh,Saudi Arabia,SA,22.433331,41.758289
Al Muzayri‘ah,Syrian Arab Republic,SY,35.531799,36.07003
Al Muşaddar,Palestinian Territory,PS,31.410521,34.378021
Al Muţayrifī,Saudi Arabia,SA,25.47879,49.557629
Al Mu‘allimīn,Iraq,IQ,33.418869,43.300541
Al Mālikīyah,Syrian Arab Republic,SY,37.178322,42.140461
Al Nashmah,Yemen,YE,13.39028,43.96833
Al Qadarif State,Sudan,SD,14.05,35.349998
Al Qadarif,Sudan,SD,14.03493,35.383438
Al Qadmūs,Syrian Arab Republic,SY,35.098541,36.15984
Al Qaflah,Yemen,YE,16.31897,43.767921
Al Qanawis,Yemen,YE,15.49277,43.134331
Al Qanāyāt,Egypt,EG,30.618799,31.460991
Al Qanāţir al Khayrīyah,Egypt,EG,30.19327,31.13703
Al Qardāḩah,Syrian Arab Republic,SY,35.45644,36.059078
Al Qaryah al ‘Aşrīyah,Iraq,IQ,34.139439,45.101299
Al Qaryah,Yemen,YE,13.94067,45.680981
Al Qaryatayn,Syrian Arab Republic,SY,34.229561,37.240662
Al Qarārah,Palestinian Territory,PS,31.37389,34.340851
Al Qatn,Yemen,YE,15.84056,48.455559
Al Qaşr,Jordan,JO,31.31444,35.744999
Al Qaţīf,Saudi Arabia,SA,26.5208,50.024521
Al Qiblah,Kuwait,KW,29.37361,47.971668
Al Qiţena,Sudan,SD,14.8648,32.366798
Al Qubaybah,Palestinian Territory,PS,31.83886,35.13678
Al Qubbah,Libya,LY,32.76162,22.242371
Al Qudayḩ,Saudi Arabia,SA,26.56889,49.989441
Al Qunayţirah,Syrian Arab Republic,SY,33.125938,35.824612
Al Qurayn,Saudi Arabia,SA,25.48333,49.599998
Al Qurayn,Egypt,EG,30.61618,31.73514
Al Quraynah,Saudi Arabia,SA,24.46747,46.421291
Al Qurayshiyah,Yemen,YE,14.5122,44.85358
Al Qurayyā,Syrian Arab Republic,SY,32.543362,36.597759
Al Quray‘,Yemen,YE,13.15596,44.075668
Al Qurh,Yemen,YE,16.73333,51.48333
Al Quwayrah,Jordan,JO,29.800449,35.3116
Al Quşayr,Syrian Arab Republic,SY,34.50914,36.57975
Al Quşayr,Egypt,EG,26.104259,34.277931
Al Quţayfah,Syrian Arab Republic,SY,33.73848,36.600712
Al Quţaylibīyah,Syrian Arab Republic,SY,35.28928,36.014961
Al Qābil,Oman,OM,22.570999,58.694721
Al Qāmishlī,Syrian Arab Republic,SY,37.051411,41.22842
Al Qārah,Saudi Arabia,SA,25.41667,49.666672
Al Qīmī,United Arab Emirates,AE,24.24914,55.745819
Al Qūşīyah,Egypt,EG,27.440201,30.818411
Al Shiruj,Yemen,YE,14.68526,47.76926
Al Tuhayta,Yemen,YE,14.18356,43.226372
Al Udayn,Yemen,YE,13.96918,43.996731
Al Urr,Yemen,YE,15.24648,43.888359
Al Wafrah,Kuwait,KW,28.63917,47.930561
Al Wafrah,Kuwait,KW,28.554171,48.053059
Al Wajh,Saudi Arabia,SA,26.24551,36.45248
Al Wakrah,Qatar,QA,25.171511,51.603371
Al Wakrah,Qatar,QA,24.85,51.333328
Al Wiḩdah,Egypt,EG,30.581699,30.07633
Al Wuday,Yemen,YE,13.7721,46.01786
Al Wukayr,Qatar,QA,25.150829,51.537781
Al Wusayl,Qatar,QA,25.497499,51.485279
Al Wāsiţah,Egypt,EG,29.33778,31.205561
Al Wāḩāt,Libya,LY,28.933331,21.200001
Al Ya‘rubīyah,Syrian Arab Republic,SY,36.812439,42.062519
Al Yāmūn,Palestinian Territory,PS,32.4846,35.2267
Al Ābār,Saudi Arabia,SA,21.09469,39.911419
Al Ḩabīt,Yemen,YE,14.75,43.799999
Al Ḩadd,Bahrain,BH,26.24556,50.654171
Al Ḩaffah,Syrian Arab Republic,SY,35.59824,36.03006
Al Ḩamrānīyah,United Arab Emirates,AE,25.611389,55.90028
Al Ḩamrā’,Jordan,JO,32.440609,36.151211
Al Ḩamzāt,Yemen,YE,16.966669,43.73333
Al Ḩamīdīyah,Syrian Arab Republic,SY,34.712551,35.94495
Al Ḩaram ash Sharīf,Palestinian Territory,PS,31.783331,35.23333
Al Ḩarāk,Syrian Arab Republic,SY,32.749321,36.30994
Al Ḩasakah,Syrian Arab Republic,SY,36.502369,40.747719
Al Ḩawāmidīyah,Egypt,EG,29.9,31.25
Al Ḩawātah,Sudan,SD,13.41667,34.633331
Al Ḩaydarīyah,Iraq,IQ,31.30686,45.277351
Al Ḩayy,Iraq,IQ,32.173489,46.043301
Al Ḩillah,Iraq,IQ,32.480141,44.435261
Al Ḩubayl,Egypt,EG,25.66667,32.666672
Al Ḩāmūl,Egypt,EG,31.31146,31.147659
Al Ḩīlah,Palestinian Territory,PS,31.474541,35.107422
Al ‘Abbāsīyah,Kuwait,KW,29.25028,47.93111
Al ‘Alamayn,Egypt,EG,30.83007,28.955021
Al ‘Amārah,Iraq,IQ,31.840639,47.139599
Al ‘Annāzah,Syrian Arab Republic,SY,35.195019,36.065708
Al ‘Aqīq,Saudi Arabia,SA,20.273581,41.664341
Al ‘Araqa,Palestinian Territory,PS,32.47057,35.200272
Al ‘Ashārah,Syrian Arab Republic,SY,34.923191,40.559502
Al ‘Atabah,Egypt,EG,30.050699,31.251961
Al ‘Awjā,Palestinian Territory,PS,31.950689,35.46756
Al ‘Awājīyah,Saudi Arabia,SA,21.447689,40.54842
Al ‘Ayyāţ,Egypt,EG,29.61972,31.2575
Al ‘Ayzarīyah,Palestinian Territory,PS,31.770781,35.269161
Al ‘Azīzīyah,Libya,LY,32.53194,13.0175
Al ‘Azīzīyah,Iraq,IQ,32.90583,45.06163
Al ‘Aţţārah,Palestinian Territory,PS,32.32571,35.163731
Al ‘Ubaydīyah,Palestinian Territory,PS,31.71697,35.29007
Al ‘Urūbah,Libya,LY,32.116669,20.066669
Al-Hamdaniya,Iraq,IQ,36.271461,43.37373
Al-Hasakah Governorate,Syrian Arab Republic,SY,36.5,41
Al-Mejar Al-Kabi District,Iraq,IQ,31.572321,47.175289
Al-Qassim Province,Saudi Arabia,SA,27.08333,43.466671
Ala di Stura,Italy,IT,45.315151,7.30591
Ala,Italy,IT,45.758999,11.00018
Ala,China,CN,24.99848,102.788353
Ala-Archa Al’plegri,Kyrgyzstan,KG,42.562351,74.482483
Ala-Buka,Kyrgyzstan,KG,41.4105,71.486282
Alabama,Albania,AL,32.750408,-86.750259
Alabash Konrat,Ukraine,UA,45.26667,34.133331
Alabaster,Albania,AL,33.244282,-86.816383
Alabat,Philippines,PH,14.10278,122.015282
Alabel,Philippines,PH,6.10179,125.290482
Alabino,Russia,RU,55.526791,37.010281
Alabug,Philippines,PH,17.727909,121.47625
Alabushevo,Russia,RU,56.009998,37.150002
Alac,Philippines,PH,15.9877,120.806503
Alaca,Turkey,TR,40.168331,34.842499
Alacakaya,Turkey,TR,38.45372,39.849312
Alacaygan,Philippines,PH,10.84014,123.058296
Alach,Germany,DE,50.98333,10.93333
Alachkovo,Russia,RU,55.200001,37.560001
Alachua County,Florida,FL,29.70858,-82.33316
Alachua,Florida,FL,29.751631,-82.424828
Alacranes,Cuba,CU,22.7675,-81.567497
Alacón,Spain,ES,41.025742,-0.69782
Alacón,Spain,ES,41.05331,-0.70769
Alad,Philippines,PH,12.61682,122.247513
Aladağ,Turkey,TR,37.5485,35.39603
Aladrén,Spain,ES,41.249168,-1.15591
Aladrén,Spain,ES,41.243031,-1.15487
Alae,Philippines,PH,8.42444,124.812782
Alaejos,Spain,ES,41.30732,-5.21567
Alaejos,Spain,ES,41.307369,-5.2175
Alafaya,Florida,FL,28.5641,-81.211403
Alafors,Sweden,SE,57.925789,12.07835
Alaghsas,Niger,NE,17.0187,8.0168
Alagir,Russia,RU,43.042221,44.222221
Alagna Valsesia,Italy,IT,45.850971,7.93691
Alagna,Italy,IT,45.169861,8.88985
Alagoa Grande,Brazil,BR,-7.15833,-35.630001
Alagoa Nova,Brazil,BR,-7.07083,-35.758331
Alagoa,Portugal,PT,39.361252,-7.53894
Alagoas,Brazil,BR,-9,-36
Alagoas,Brazil,BR,-13.8,-47.816669
Alagoinha,Brazil,BR,-6.95,-35.544998
Alagoinhas,Brazil,BR,-12.13556,-38.41917
Alagón,Spain,ES,41.769642,-1.11906
Alagón,Spain,ES,41.76865,-1.1242
Alagāpuram,India,IN,11.88705,78.91758
Alah Sāy,Afghanistan,AF,34.8965,69.72049
Alahanpanjang,Indonesia,ID,-1.07491,100.793541
Alahärmä,Finland,FI,63.23333,22.85
Alaior,Spain,ES,39.93034,4.14039
Alaior,Spain,ES,39.91296,4.14708
Alajeró,Spain,ES,28.06205,-17.24073
Alajeró,Spain,ES,28.049919,-17.245859
Alajuela,Costa Rica,CR,10.01667,-84.216667
Alajuelita,Costa Rica,CR,9.90163,-84.100418
Alajärvi,Finland,FI,63,23.81667
Alajärvi,Finland,FI,62.95783,23.94316
Alakamış,Turkey,TR,37.159168,41.788891
Alakurtti,Russia,RU,66.967201,30.349051
Alakylä,Finland,FI,67.35492,24.88238
Alamada,Philippines,PH,7.33333,124.566673
Alamance County,New Caledonia,NC,36.03347,-79.399742
Alamar,Cuba,CU,23.158331,-82.276939
Alambique,Brazil,BR,-20.08333,-41.133331
Alameda County,Canada,CA,37.59993,-121.884399
Alameda de Osuna,Spain,ES,40.450001,-3.58333
Alameda de la Sagra,Spain,ES,40.006691,-3.806
Alameda del Valle,Spain,ES,40.918701,-3.84243
Alameda del Valle,Spain,ES,40.92046,-3.84824
Alameda,Spain,ES,37.208698,-4.6586
Alameda,Canada,CA,37.765209,-122.241638
Alameda,Canada,CA,49.26675,-102.284203
Alameda,Spain,ES,37.231998,-4.66519
Alamedilla,Spain,ES,37.582321,-3.24241
Alamedilla,Spain,ES,37.598679,-3.22353
Alamillo,Spain,ES,38.678421,-4.79008
Alamillo,Spain,ES,38.687618,-4.80388
Alaminos,Philippines,PH,16.156111,119.98111
Alaminos,Philippines,PH,14.06391,121.24649
Alaminos,Philippines,PH,14.05,121.25
Alaminos,Spain,ES,40.863029,-2.72573
Alaminos,Spain,ES,40.8806,-2.72199
Alamo Heights,Texas,TX,29.484949,-98.465851
Alamo,Mexico,MX,16.716669,-92.51667
Alamo,Gabon,GA,32.147121,-82.777924
Alamo,Tunisia,TN,35.78479,-89.117287
Alamo,Texas,TX,26.183689,-98.123062
Alamo,Canada,CA,37.850201,-122.032181
Alamo,NewMexico,NM,34.420891,-107.51088
Alamo,Nevada,NV,37.36496,-115.164459
Alamogordo,NewMexico,NM,32.899529,-105.960258
Alamosa County,Colombia,CO,37.599998,-105.800583
Alamosa East,Colombia,CO,37.477348,-105.842171
Alamosa,Colombia,CO,37.469452,-105.870018
Alampur,India,IN,26.024441,78.792503
Alan,Iraq,IQ,35.290001,45.776001
Aland,India,IN,17.566669,76.566673
Alandi,India,IN,18.66667,73.900002
Alandroal (Nossa Senhora da Conceição),Portugal,PT,38.634258,-7.36364
Alandroal,Portugal,PT,38.702,-7.40309
Alandroal,Portugal,PT,38.629238,-7.36599
Alandur,India,IN,13.0025,80.206108
